[
  {
    "id": 367,
    "address": "463 Conservatory Dr",
    "appraisal_id": "unknown",
    "sale_price": 674000.0,
    "gla": 1500.0,
    "lot_size": 0.0,
    "bedrooms": 3.0,
    "bathrooms": 1.0,
    "year_built": 1990.0,
    "garage_spaces": 0.0,
    "structure_type": "Detached",
    "latitude": 44.2325,
    "longitude": -76.5901,
    "source": "appraisal_dataset",
    "close_date": "2025-01-13"
  },
  {
    "id": 163443,
    "address": "463 Conservatory Drive ",
    "appraisal_id": "unknown",
    "sale_price": 674000.0,
    "gla": 1750.0,
    "lot_size": 0.0,
    "bedrooms": 3.0,
    "bathrooms": 1.0,
    "year_built": 1990.0,
    "garage_spaces": 0.0,
    "structure_type": "Detached, 2-Storey ",
    "latitude": 44.2325,
    "longitude": -76.5901,
    "source": "appraisal_dataset",
    "close_date": "2025-01-13"
  },
  {
    "id": 378,
    "address": "311 Janette St",
    "appraisal_id": "unknown",
    "sale_price": 585000.0,
    "gla": 1500.0,
    "lot_size": 0.0,
    "bedrooms": 3.0,
    "bathrooms": 1.0,
    "year_built": 1990.0,
    "garage_spaces": 0.0,
    "structure_type": "Freehold Townhouse",
    "latitude": 44.2622,
    "longitude": -76.5904,
    "source": "appraisal_dataset",
    "close_date": "2025-01-14"
  },
  {
    "id": 130023,
    "address": "311 Janette Street ",
    "appraisal_id": "unknown",
    "sale_price": 585000.0,
    "gla": 1300.0,
    "lot_size": 0.0,
    "bedrooms": 3.0,
    "bathrooms": 1.0,
    "year_built": 1990.0,
    "garage_spaces": 0.0,
    "structure_type": "Freehold Townhouse, 2-Storey ",
    "latitude": 44.2622,
    "longitude": -76.5904,
    "source": "appraisal_dataset",
    "close_date": "2025-01-14"
  },
  {
    "id": 2783,
    "address": "786 HIGH GATE PARK Dr",
    "appraisal_id": "unknown",
    "sale_price": 495000.0,
    "gla": 1300.0,
    "lot_size": 0.0,
    "bedrooms": 3.0,
    "bathrooms": 1.0,
    "year_built": 1990.0,
    "garage_spaces": 0.0,
    "structure_type": "Detached",
    "latitude": 44.2489,
    "longitude": -76.6045,
    "source": "appraisal_dataset",
    "close_date": "2025-01-15"
  },
  {
    "id": 138739,
    "address": "786 HIGH GATE PARK Drive ",
    "appraisal_id": "unknown",
    "sale_price": 495000.0,
    "gla": 1300.0,
    "lot_size": 0.0,
    "bedrooms": 3.0,
    "bathrooms": 1.0,
    "year_built": 1990.0,
    "garage_spaces": 0.0,
    "structure_type": "Detached, Sidesplit 3 ",
    "latitude": 44.2489,
    "longitude": -76.6045,
    "source": "appraisal_dataset",
    "close_date": "2025-01-15"
  },
  {
    "id": 2763,
    "address": "784 Downing St",
    "appraisal_id": "unknown",
    "sale_price": 567500.0,
    "gla": 1250.0,
    "lot_size": 0.0,
    "bedrooms": 5.0,
    "bathrooms": 1.0,
    "year_built": 1990.0,
    "garage_spaces": 0.0,
    "structure_type": "Detached",
    "latitude": 44.2492,
    "longitude": -76.5968,
    "source": "appraisal_dataset",
    "close_date": "2025-01-17"
  },
  {
    "id": 146595,
    "address": "784 Downing Street ",
    "appraisal_id": "unknown",
    "sale_price": 567500.0,
    "gla": 1300.0,
    "lot_size": 0.0,
    "bedrooms": 4.0,
    "bathrooms": 1.0,
    "year_built": 1990.0,
    "garage_spaces": 0.0,
    "structure_type": "Detached, Sidesplit 4 ",
    "latitude": 44.2492,
    "longitude": -76.5968,
    "source": "appraisal_dataset",
    "close_date": "2025-01-17"
  },
  {
    "id": 163,
    "address": "593 Roosevelt Dr",
    "appraisal_id": "unknown",
    "sale_price": 681000.0,
    "gla": 1880.0,
    "lot_size": 0.0,
    "bedrooms": 4.0,
    "bathrooms": 1.0,
    "year_built": 1990.0,
    "garage_spaces": 0.0,
    "structure_type": "Detached",
    "latitude": 44.2346,
    "longitude": -76.5871,
    "source": "appraisal_dataset",
    "close_date": "2025-01-21"
  },
  {
    "id": 163711,
    "address": "593 Roosevelt Drive ",
    "appraisal_id": "unknown",
    "sale_price": 681000.0,
    "gla": 1817.0,
    "lot_size": 0.0,
    "bedrooms": 4.0,
    "bathrooms": 1.0,
    "year_built": 1990.0,
    "garage_spaces": 0.0,
    "structure_type": "Detached, Bungalow ",
    "latitude": 44.2346,
    "longitude": -76.5871,
    "source": "appraisal_dataset",
    "close_date": "2025-01-21"
  },
  {
    "id": 2715,
    "address": "657 Gwen Ave",
    "appraisal_id": "unknown",
    "sale_price": 807000.0,
    "gla": 2000.0,
    "lot_size": 0.0,
    "bedrooms": 4.0,
    "bathrooms": 1.0,
    "year_built": 1990.0,
    "garage_spaces": 0.0,
    "structure_type": "Detached",
    "latitude": 44.2649,
    "longitude": -76.5904,
    "source": "appraisal_dataset",
    "close_date": "2025-01-23"
  },
  {
    "id": 105835,
    "address": "657 Gwen Avenue ",
    "appraisal_id": "unknown",
    "sale_price": 807000.0,
    "gla": 2250.0,
    "lot_size": 0.0,
    "bedrooms": 4.0,
    "bathrooms": 1.0,
    "year_built": 1990.0,
    "garage_spaces": 0.0,
    "structure_type": "Detached, 2-Storey ",
    "latitude": 44.2649,
    "longitude": -76.5904,
    "source": "appraisal_dataset",
    "close_date": "2025-01-23"
  },
  {
    "id": 101,
    "address": "1341 TREMONT Dr",
    "appraisal_id": "unknown",
    "sale_price": 572999.0,
    "gla": 1550.0,
    "lot_size": 0.0,
    "bedrooms": 3.0,
    "bathrooms": 1.0,
    "year_built": 1990.0,
    "garage_spaces": 0.0,
    "structure_type": "Freehold Townhouse",
    "latitude": 44.2661,
    "longitude": -76.5911,
    "source": "appraisal_dataset",
    "close_date": "2025-01-24"
  },
  {
    "id": 2682,
    "address": "Unit 402 - 649 DAVIS Dr",
    "appraisal_id": "unknown",
    "sale_price": 330000.0,
    "gla": 1100.0,
    "lot_size": 0.0,
    "bedrooms": 2.0,
    "bathrooms": 1.0,
    "year_built": 1990.0,
    "garage_spaces": 0.0,
    "structure_type": "Apartment",
    "latitude": 44.254,
    "longitude": -76.5675,
    "source": "appraisal_dataset",
    "close_date": "2025-01-24"
  },
  {
    "id": 130134,
    "address": "1341 TREMONT Drive ",
    "appraisal_id": "unknown",
    "sale_price": 572999.0,
    "gla": 1564.0,
    "lot_size": 0.0,
    "bedrooms": 3.0,
    "bathrooms": 1.0,
    "year_built": 1990.0,
    "garage_spaces": 0.0,
    "structure_type": "Freehold Townhouse, 2-Storey ",
    "latitude": 44.2661,
    "longitude": -76.5911,
    "source": "appraisal_dataset",
    "close_date": "2025-01-24"
  },
  {
    "id": 161384,
    "address": "Unit 402 - 649 DAVIS Drive ",
    "appraisal_id": "unknown",
    "sale_price": 330000.0,
    "gla": 1100.0,
    "lot_size": 0.0,
    "bedrooms": 2.0,
    "bathrooms": 1.0,
    "year_built": 1990.0,
    "garage_spaces": 0.0,
    "structure_type": "Condo Apartment, Apartment ",
    "latitude": 44.2541,
    "longitude": -76.5675,
    "source": "appraisal_dataset",
    "close_date": "2025-01-24"
  },
  {
    "id": 52,
    "address": "1028 Bauder Cres",
    "appraisal_id": "unknown",
    "sale_price": 542000.0,
    "gla": 900.0,
    "lot_size": 0.0,
    "bedrooms": 2.0,
    "bathrooms": 1.0,
    "year_built": 40.0,
    "garage_spaces": 0.0,
    "structure_type": "Detached",
    "latitude": 44.2576,
    "longitude": -76.5861,
    "source": "appraisal_dataset",
    "close_date": "2025-01-25"
  },
  {
    "id": 2691,
    "address": "1040 Earnhart St",
    "appraisal_id": "unknown",
    "sale_price": 740000.0,
    "gla": 1750.0,
    "lot_size": 0.0,
    "bedrooms": 3.0,
    "bathrooms": 1.0,
    "year_built": 1990.0,
    "garage_spaces": 0.0,
    "structure_type": "Detached",
    "latitude": 44.2587,
    "longitude": -76.6071,
    "source": "appraisal_dataset",
    "close_date": "2025-01-25"
  },
  {
    "id": 108041,
    "address": "1028 Bauder Crescent ",
    "appraisal_id": "unknown",
    "sale_price": 542000.0,
    "gla": 900.0,
    "lot_size": 0.0,
    "bedrooms": 3.0,
    "bathrooms": 1.0,
    "year_built": 1990.0,
    "garage_spaces": 0.0,
    "structure_type": "Detached, Bungalow-Raised ",
    "latitude": 44.2576,
    "longitude": -76.5861,
    "source": "appraisal_dataset",
    "close_date": "2025-01-25"
  },
  {
    "id": 166167,
    "address": "1040 Earnhart Street ",
    "appraisal_id": "unknown",
    "sale_price": 740000.0,
    "gla": 1750.0,
    "lot_size": 0.0,
    "bedrooms": 3.0,
    "bathrooms": 1.0,
    "year_built": 1990.0,
    "garage_spaces": 0.0,
    "structure_type": "Detached, 2-Storey ",
    "latitude": 44.2587,
    "longitude": -76.6071,
    "source": "appraisal_dataset",
    "close_date": "2025-01-25"
  },
  {
    "id": 116918,
    "address": "994 WESTMINSTER Place ",
    "appraisal_id": "unknown",
    "sale_price": 595000.0,
    "gla": 1604.0,
    "lot_size": 0.0,
    "bedrooms": 3.0,
    "bathrooms": 1.0,
    "year_built": 1990.0,
    "garage_spaces": 0.0,
    "structure_type": "Detached, 2-Storey ",
    "latitude": 44.2526,
    "longitude": -76.5912,
    "source": "appraisal_dataset",
    "close_date": "2025-01-27"
  },
  {
    "id": 28,
    "address": "2138 Balantrae Circ",
    "appraisal_id": "unknown",
    "sale_price": 745000.0,
    "gla": 1850.0,
    "lot_size": 0.0,
    "bedrooms": 3.0,
    "bathrooms": 1.0,
    "year_built": 1990.0,
    "garage_spaces": 0.0,
    "structure_type": "Detached",
    "latitude": 44.2331,
    "longitude": -76.5906,
    "source": "appraisal_dataset",
    "close_date": "2025-01-28"
  },
  {
    "id": 166132,
    "address": "2138 Balantrae Circle ",
    "appraisal_id": "unknown",
    "sale_price": 745000.0,
    "gla": 1750.0,
    "lot_size": 0.0,
    "bedrooms": 4.0,
    "bathrooms": 1.0,
    "year_built": 1990.0,
    "garage_spaces": 0.0,
    "structure_type": "Detached, 2-Storey ",
    "latitude": 44.2331,
    "longitude": -76.5906,
    "source": "appraisal_dataset",
    "close_date": "2025-01-28"
  },
  {
    "id": 2,
    "address": "692 Truedell Rd",
    "appraisal_id": "unknown",
    "sale_price": 465000.0,
    "gla": 1252.0,
    "lot_size": 0.0,
    "bedrooms": 3.0,
    "bathrooms": 1.0,
    "year_built": 1990.0,
    "garage_spaces": 0.0,
    "structure_type": "Semi-Detached",
    "latitude": 44.2462,
    "longitude": -76.5788,
    "source": "appraisal_dataset",
    "close_date": "2025-01-29"
  },
  {
    "id": 111830,
    "address": "692 Truedell Road ",
    "appraisal_id": "unknown",
    "sale_price": 465000.0,
    "gla": 1259.0,
    "lot_size": 0.0,
    "bedrooms": 3.0,
    "bathrooms": 1.0,
    "year_built": 1990.0,
    "garage_spaces": 0.0,
    "structure_type": "Semi-Detached, 2-Storey ",
    "latitude": 44.2462,
    "longitude": -76.5788,
    "source": "appraisal_dataset",
    "close_date": "2025-01-29"
  },
  {
    "id": 2660,
    "address": "728 Sussex Blvd",
    "appraisal_id": "unknown",
    "sale_price": 595000.0,
    "gla": 1300.0,
    "lot_size": 0.0,
    "bedrooms": 3.0,
    "bathrooms": 1.0,
    "year_built": 1990.0,
    "garage_spaces": 0.0,
    "structure_type": "Detached",
    "latitude": 44.2467,
    "longitude": -76.5959,
    "source": "appraisal_dataset",
    "close_date": "2025-01-30"
  },
  {
    "id": 146612,
    "address": "728 Sussex Boulevard ",
    "appraisal_id": "unknown",
    "sale_price": 595000.0,
    "gla": 1300.0,
    "lot_size": 0.0,
    "bedrooms": 3.0,
    "bathrooms": 1.0,
    "year_built": 1990.0,
    "garage_spaces": 0.0,
    "structure_type": "Detached, Sidesplit 3 ",
    "latitude": 44.2467,
    "longitude": -76.5959,
    "source": "appraisal_dataset",
    "close_date": "2025-01-30"
  },
  {
    "id": 3278,
    "address": "Unit 51 - 808 Datzell Lane",
    "appraisal_id": "unknown",
    "sale_price": 375000.0,
    "gla": 1100.0,
    "lot_size": 0.0,
    "bedrooms": 3.0,
    "bathrooms": 1.0,
    "year_built": 1990.0,
    "garage_spaces": 0.0,
    "structure_type": "Condo Townhouse, 2-Storey ",
    "latitude": 44.25,
    "longitude": -76.5903,
    "source": "appraisal_dataset",
    "close_date": "2025-01-31"
  },
  {
    "id": 3312,
    "address": "1126 Dunham St",
    "appraisal_id": "unknown",
    "sale_price": 935000.0,
    "gla": 2700.0,
    "lot_size": 0.0,
    "bedrooms": 3.0,
    "bathrooms": 1.0,
    "year_built": 1990.0,
    "garage_spaces": 0.0,
    "structure_type": "Detached",
    "latitude": 44.2547,
    "longitude": -76.5988,
    "source": "appraisal_dataset",
    "close_date": "2025-01-31"
  },
  {
    "id": 14098,
    "address": "983 Westminster Place ",
    "appraisal_id": "unknown",
    "sale_price": 571400.0,
    "gla": 1721.0,
    "lot_size": 0.0,
    "bedrooms": 5.0,
    "bathrooms": 1.0,
    "year_built": 1990.0,
    "garage_spaces": 0.0,
    "structure_type": "Single Family Residence, Sidesplit ",
    "latitude": 44.2522,
    "longitude": -76.5908,
    "source": "appraisal_dataset",
    "close_date": "2025-01-31"
  },
  {
    "id": 166972,
    "address": "1126 Dunham Street ",
    "appraisal_id": "unknown",
    "sale_price": 935000.0,
    "gla": 2750.0,
    "lot_size": 0.0,
    "bedrooms": 5.0,
    "bathrooms": 1.0,
    "year_built": 1990.0,
    "garage_spaces": 0.0,
    "structure_type": "Detached, Backsplit 4 ",
    "latitude": 44.2547,
    "longitude": -76.5988,
    "source": "appraisal_dataset",
    "close_date": "2025-01-31"
  },
  {
    "id": 14081,
    "address": "4061 BATH Rd ",
    "appraisal_id": "unknown",
    "sale_price": 473030.0,
    "gla": 1820.0,
    "lot_size": 0.0,
    "bedrooms": 4.0,
    "bathrooms": 1.0,
    "year_built": 75.0,
    "garage_spaces": 0.0,
    "structure_type": "Detached",
    "latitude": 44.2415,
    "longitude": -76.6103,
    "source": "appraisal_dataset",
    "close_date": "2025-02-01"
  },
  {
    "id": 138693,
    "address": "4061 BATH Road ",
    "appraisal_id": "unknown",
    "sale_price": 473030.0,
    "gla": 1797.0,
    "lot_size": 0.0,
    "bedrooms": 4.0,
    "bathrooms": 1.0,
    "year_built": 1990.0,
    "garage_spaces": 0.0,
    "structure_type": "Detached, 2-Storey ",
    "latitude": 44.2415,
    "longitude": -76.6103,
    "source": "appraisal_dataset",
    "close_date": "2025-02-01"
  },
  {
    "id": 4112,
    "address": "661 Roosevelt Dr",
    "appraisal_id": "unknown",
    "sale_price": 580000.0,
    "gla": 1500.0,
    "lot_size": 0.0,
    "bedrooms": 2.0,
    "bathrooms": 1.0,
    "year_built": 1990.0,
    "garage_spaces": 0.0,
    "structure_type": "Detached",
    "latitude": 44.2326,
    "longitude": -76.5884,
    "source": "appraisal_dataset",
    "close_date": "2025-02-04"
  },
  {
    "id": 4115,
    "address": "657 Barnsley Cres",
    "appraisal_id": "unknown",
    "sale_price": 550000.0,
    "gla": 1501.0,
    "lot_size": 0.0,
    "bedrooms": 3.0,
    "bathrooms": 1.0,
    "year_built": 1990.0,
    "garage_spaces": 0.0,
    "structure_type": "Semi-Detached",
    "latitude": 44.2319,
    "longitude": -76.5967,
    "source": "appraisal_dataset",
    "close_date": "2025-02-04"
  },
  {
    "id": 4132,
    "address": "418 Conservatory Dr",
    "appraisal_id": "unknown",
    "sale_price": 762000.0,
    "gla": 1616.0,
    "lot_size": 0.0,
    "bedrooms": 3.0,
    "bathrooms": 1.0,
    "year_built": 1990.0,
    "garage_spaces": 0.0,
    "structure_type": "Detached",
    "latitude": 44.2319,
    "longitude": -76.5915,
    "source": "appraisal_dataset",
    "close_date": "2025-02-04"
  },
  {
    "id": 116709,
    "address": "661 Roosevelt Drive ",
    "appraisal_id": "unknown",
    "sale_price": 580000.0,
    "gla": 1750.0,
    "lot_size": 0.0,
    "bedrooms": 2.0,
    "bathrooms": 1.0,
    "year_built": 1990.0,
    "garage_spaces": 0.0,
    "structure_type": "Detached, Bungalow-Raised ",
    "latitude": 44.2326,
    "longitude": -76.5884,
    "source": "appraisal_dataset",
    "close_date": "2025-02-04"
  },
  {
    "id": 130246,
    "address": "657 Barnsley Crescent ",
    "appraisal_id": "unknown",
    "sale_price": 550000.0,
    "gla": 1506.0,
    "lot_size": 0.0,
    "bedrooms": 3.0,
    "bathrooms": 1.0,
    "year_built": 1990.0,
    "garage_spaces": 0.0,
    "structure_type": "Semi-Detached, 2-Storey ",
    "latitude": 44.2319,
    "longitude": -76.5967,
    "source": "appraisal_dataset",
    "close_date": "2025-02-04"
  },
  {
    "id": 152826,
    "address": "418 Conservatory Drive ",
    "appraisal_id": "unknown",
    "sale_price": 762000.0,
    "gla": 1596.0,
    "lot_size": 0.0,
    "bedrooms": 3.0,
    "bathrooms": 1.0,
    "year_built": 1990.0,
    "garage_spaces": 0.0,
    "structure_type": "Detached, 2-Storey ",
    "latitude": 44.2319,
    "longitude": -76.5915,
    "source": "appraisal_dataset",
    "close_date": "2025-02-04"
  },
  {
    "id": 4104,
    "address": "1001 Lombardy St",
    "appraisal_id": "unknown",
    "sale_price": 615000.0,
    "gla": 1500.0,
    "lot_size": 0.0,
    "bedrooms": 4.0,
    "bathrooms": 1.0,
    "year_built": 1990.0,
    "garage_spaces": 0.0,
    "structure_type": "Detached",
    "latitude": 44.2394,
    "longitude": -76.5895,
    "source": "appraisal_dataset",
    "close_date": "2025-02-05"
  },
  {
    "id": 77837,
    "address": "605 Truedell Rd ",
    "appraisal_id": "unknown",
    "sale_price": 595000.0,
    "gla": 1300.0,
    "lot_size": 0.0,
    "bedrooms": 3.0,
    "bathrooms": 1.0,
    "year_built": 40.0,
    "garage_spaces": 0.0,
    "structure_type": "Detached",
    "latitude": 44.2422,
    "longitude": -76.5804,
    "source": "appraisal_dataset",
    "close_date": "2025-02-05"
  },
  {
    "id": 77856,
    "address": "Unit 108 - 835 Milford Dr ",
    "appraisal_id": "unknown",
    "sale_price": 253750.0,
    "gla": 550.0,
    "lot_size": 0.0,
    "bedrooms": 1.0,
    "bathrooms": 1.0,
    "year_built": 75.0,
    "garage_spaces": 0.0,
    "structure_type": "Condo Apt",
    "latitude": 44.2508,
    "longitude": -76.5839,
    "source": "appraisal_dataset",
    "close_date": "2025-02-05"
  },
  {
    "id": 77968,
    "address": "771 ASHWOOD Dr ",
    "appraisal_id": "unknown",
    "sale_price": 327000.0,
    "gla": 1100.0,
    "lot_size": 0.0,
    "bedrooms": 3.0,
    "bathrooms": 1.0,
    "year_built": 40.0,
    "garage_spaces": 0.0,
    "structure_type": "Condo Townhouse",
    "latitude": 44.2488,
    "longitude": -76.5889,
    "source": "appraisal_dataset",
    "close_date": "2025-02-05"
  },
  {
    "id": 126035,
    "address": "1001 Lombardy Street ",
    "appraisal_id": "unknown",
    "sale_price": 615000.0,
    "gla": 1750.0,
    "lot_size": 0.0,
    "bedrooms": 4.0,
    "bathrooms": 1.0,
    "year_built": 1990.0,
    "garage_spaces": 0.0,
    "structure_type": "Detached, 2-Storey ",
    "latitude": 44.2394,
    "longitude": -76.5895,
    "source": "appraisal_dataset",
    "close_date": "2025-02-05"
  },
  {
    "id": 146404,
    "address": "605 Truedell Road ",
    "appraisal_id": "unknown",
    "sale_price": 595000.0,
    "gla": 1300.0,
    "lot_size": 0.0,
    "bedrooms": 3.0,
    "bathrooms": 1.0,
    "year_built": 1990.0,
    "garage_spaces": 0.0,
    "structure_type": "Detached, Backsplit 3 ",
    "latitude": 44.2422,
    "longitude": -76.5804,
    "source": "appraisal_dataset",
    "close_date": "2025-02-05"
  },
  {
    "id": 161844,
    "address": "771 ASHWOOD Drive ",
    "appraisal_id": "unknown",
    "sale_price": 327000.0,
    "gla": 1100.0,
    "lot_size": 0.0,
    "bedrooms": 3.0,
    "bathrooms": 1.0,
    "year_built": 1990.0,
    "garage_spaces": 0.0,
    "structure_type": "Condo Townhouse, 2-Storey ",
    "latitude": 44.2488,
    "longitude": -76.5889,
    "source": "appraisal_dataset",
    "close_date": "2025-02-05"
  },
  {
    "id": 162303,
    "address": "Unit 108 - 835 Milford Drive ",
    "appraisal_id": "unknown",
    "sale_price": 253750.0,
    "gla": 550.0,
    "lot_size": 0.0,
    "bedrooms": 2.0,
    "bathrooms": 1.0,
    "year_built": 1990.0,
    "garage_spaces": 0.0,
    "structure_type": "Condo Apartment, Apartment ",
    "latitude": 44.2508,
    "longitude": -76.5839,
    "source": "appraisal_dataset",
    "close_date": "2025-02-05"
  },
  {
    "id": 77521,
    "address": "494 Roosevelt Dr ",
    "appraisal_id": "unknown",
    "sale_price": 570000.0,
    "gla": 1300.0,
    "lot_size": 0.0,
    "bedrooms": 3.0,
    "bathrooms": 1.0,
    "year_built": 40.0,
    "garage_spaces": 0.0,
    "structure_type": "Detached",
    "latitude": 44.2343,
    "longitude": -76.5812,
    "source": "appraisal_dataset",
    "close_date": "2025-02-07"
  },
  {
    "id": 77694,
    "address": "393 Bernice Dr ",
    "appraisal_id": "unknown",
    "sale_price": 875000.0,
    "gla": 2470.0,
    "lot_size": 0.0,
    "bedrooms": 4.0,
    "bathrooms": 1.0,
    "year_built": 40.0,
    "garage_spaces": 0.0,
    "structure_type": "Detached",
    "latitude": 44.2316,
    "longitude": -76.5828,
    "source": "appraisal_dataset",
    "close_date": "2025-02-07"
  },
  {
    "id": 77711,
    "address": "871 Crestwood Ave ",
    "appraisal_id": "unknown",
    "sale_price": 725000.0,
    "gla": 2750.0,
    "lot_size": 0.0,
    "bedrooms": 4.0,
    "bathrooms": 1.0,
    "year_built": 40.0,
    "garage_spaces": 0.0,
    "structure_type": "Detached",
    "latitude": 44.2524,
    "longitude": -76.6002,
    "source": "appraisal_dataset",
    "close_date": "2025-02-07"
  },
  {
    "id": 146246,
    "address": "494 Roosevelt Drive ",
    "appraisal_id": "unknown",
    "sale_price": 570000.0,
    "gla": 1300.0,
    "lot_size": 0.0,
    "bedrooms": 3.0,
    "bathrooms": 1.0,
    "year_built": 1990.0,
    "garage_spaces": 0.0,
    "structure_type": "Detached, Bungalow-Raised ",
    "latitude": 44.2343,
    "longitude": -76.5812,
    "source": "appraisal_dataset",
    "close_date": "2025-02-07"
  },
  {
    "id": 164415,
    "address": "871 Crestwood Avenue ",
    "appraisal_id": "unknown",
    "sale_price": 725000.0,
    "gla": 2750.0,
    "lot_size": 0.0,
    "bedrooms": 4.0,
    "bathrooms": 1.0,
    "year_built": 1990.0,
    "garage_spaces": 0.0,
    "structure_type": "Detached, 2-Storey ",
    "latitude": 44.2524,
    "longitude": -76.6002,
    "source": "appraisal_dataset",
    "close_date": "2025-02-07"
  },
  {
    "id": 195813,
    "address": "393 Bernice Drive ",
    "appraisal_id": "unknown",
    "sale_price": 875000.0,
    "gla": 2482.0,
    "lot_size": 0.0,
    "bedrooms": 4.0,
    "bathrooms": 1.0,
    "year_built": 1990.0,
    "garage_spaces": 0.0,
    "structure_type": "Detached, 2-Storey ",
    "latitude": 44.2316,
    "longitude": -76.5828,
    "source": "appraisal_dataset",
    "close_date": "2025-02-07"
  },
  {
    "id": 77279,
    "address": "760 Grouse Cres ",
    "appraisal_id": "unknown",
    "sale_price": 455000.0,
    "gla": 1156.0,
    "lot_size": 0.0,
    "bedrooms": 3.0,
    "bathrooms": 1.0,
    "year_built": 40.0,
    "garage_spaces": 0.0,
    "structure_type": "Semi-Detached",
    "latitude": 44.2493,
    "longitude": -76.5827,
    "source": "appraisal_dataset",
    "close_date": "2025-02-13"
  },
  {
    "id": 77437,
    "address": "698 Fleet St ",
    "appraisal_id": "unknown",
    "sale_price": 500000.0,
    "gla": 1493.0,
    "lot_size": 0.0,
    "bedrooms": 3.0,
    "bathrooms": 1.0,
    "year_built": 1990.0,
    "garage_spaces": 0.0,
    "structure_type": "Detached",
    "latitude": 44.2454,
    "longitude": -76.5947,
    "source": "appraisal_dataset",
    "close_date": "2025-02-13"
  },
  {
    "id": 77475,
    "address": "912 OAKVIEW St ",
    "appraisal_id": "unknown",
    "sale_price": 331000.0,
    "gla": 1300.0,
    "lot_size": 0.0,
    "bedrooms": 3.0,
    "bathrooms": 1.0,
    "year_built": 1990.0,
    "garage_spaces": 0.0,
    "structure_type": "Condo Townhouse",
    "latitude": 44.2486,
    "longitude": -76.5875,
    "source": "appraisal_dataset",
    "close_date": "2025-02-13"
  },
  {
    "id": 121951,
    "address": "698 Fleet Street ",
    "appraisal_id": "unknown",
    "sale_price": 500000.0,
    "gla": 1504.0,
    "lot_size": 0.0,
    "bedrooms": 3.0,
    "bathrooms": 1.0,
    "year_built": 1990.0,
    "garage_spaces": 0.0,
    "structure_type": "Detached, Backsplit 3 ",
    "latitude": 44.2454,
    "longitude": -76.5947,
    "source": "appraisal_dataset",
    "close_date": "2025-02-13"
  },
  {
    "id": 159477,
    "address": "760 Grouse Crescent ",
    "appraisal_id": "unknown",
    "sale_price": 455000.0,
    "gla": 1119.0,
    "lot_size": 0.0,
    "bedrooms": 4.0,
    "bathrooms": 1.0,
    "year_built": 1990.0,
    "garage_spaces": 0.0,
    "structure_type": "Semi-Detached, Bungalow ",
    "latitude": 44.2493,
    "longitude": -76.5827,
    "source": "appraisal_dataset",
    "close_date": "2025-02-13"
  },
  {
    "id": 160962,
    "address": "912 OAKVIEW Street ",
    "appraisal_id": "unknown",
    "sale_price": 331000.0,
    "gla": 1300.0,
    "lot_size": 0.0,
    "bedrooms": 3.0,
    "bathrooms": 1.0,
    "year_built": 1990.0,
    "garage_spaces": 0.0,
    "structure_type": "Condo Townhouse, 2-Storey ",
    "latitude": 44.2486,
    "longitude": -76.5875,
    "source": "appraisal_dataset",
    "close_date": "2025-02-13"
  },
  {
    "id": 77228,
    "address": "995 Amberdale Cres ",
    "appraisal_id": "unknown",
    "sale_price": 315000.0,
    "gla": 1100.0,
    "lot_size": 0.0,
    "bedrooms": 3.0,
    "bathrooms": 1.0,
    "year_built": 40.0,
    "garage_spaces": 0.0,
    "structure_type": "Condo Townhouse",
    "latitude": 44.2494,
    "longitude": -76.5892,
    "source": "appraisal_dataset",
    "close_date": "2025-02-14"
  },
  {
    "id": 160874,
    "address": "995 Amberdale Crescent ",
    "appraisal_id": "unknown",
    "sale_price": 315000.0,
    "gla": 1100.0,
    "lot_size": 0.0,
    "bedrooms": 3.0,
    "bathrooms": 1.0,
    "year_built": 1990.0,
    "garage_spaces": 0.0,
    "structure_type": "Condo Townhouse, 2-Storey ",
    "latitude": 44.2494,
    "longitude": -76.5892,
    "source": "appraisal_dataset",
    "close_date": "2025-02-14"
  },
  {
    "id": 77019,
    "address": "616 Pimlico Pl ",
    "appraisal_id": "unknown",
    "sale_price": 589000.0,
    "gla": 1750.0,
    "lot_size": 0.0,
    "bedrooms": 3.0,
    "bathrooms": 1.0,
    "year_built": 1990.0,
    "garage_spaces": 0.0,
    "structure_type": "Detached",
    "latitude": 44.241,
    "longitude": -76.5864,
    "source": "appraisal_dataset",
    "close_date": "2025-02-18"
  },
  {
    "id": 135606,
    "address": "616 Pimlico Place ",
    "appraisal_id": "unknown",
    "sale_price": 589000.0,
    "gla": 1750.0,
    "lot_size": 0.0,
    "bedrooms": 4.0,
    "bathrooms": 1.0,
    "year_built": 1990.0,
    "garage_spaces": 0.0,
    "structure_type": "Detached, Sidesplit 3 ",
    "latitude": 44.241,
    "longitude": -76.5864,
    "source": "appraisal_dataset",
    "close_date": "2025-02-18"
  },
  {
    "id": 77064,
    "address": "792 Safari Dr ",
    "appraisal_id": "unknown",
    "sale_price": 637000.0,
    "gla": 1335.0,
    "lot_size": 0.0,
    "bedrooms": 3.0,
    "bathrooms": 1.0,
    "year_built": 40.0,
    "garage_spaces": 0.0,
    "structure_type": "Detached",
    "latitude": 44.2516,
    "longitude": -76.612,
    "source": "appraisal_dataset",
    "close_date": "2025-02-19"
  },
  {
    "id": 76989,
    "address": "667 Truedell Rd ",
    "appraisal_id": "unknown",
    "sale_price": 505000.0,
    "gla": 1300.0,
    "lot_size": 0.0,
    "bedrooms": 3.0,
    "bathrooms": 1.0,
    "year_built": 40.0,
    "garage_spaces": 0.0,
    "structure_type": "Detached",
    "latitude": 44.2451,
    "longitude": -76.5793,
    "source": "appraisal_dataset",
    "close_date": "2025-02-20"
  },
  {
    "id": 130030,
    "address": "995 Waterbury Crescent ",
    "appraisal_id": "unknown",
    "sale_price": 550000.0,
    "gla": 1750.0,
    "lot_size": 0.0,
    "bedrooms": 4.0,
    "bathrooms": 1.0,
    "year_built": 1990.0,
    "garage_spaces": 0.0,
    "structure_type": "Semi-Detached, Bungalow-Raised ",
    "latitude": 44.2309,
    "longitude": -76.59,
    "source": "appraisal_dataset",
    "close_date": "2025-02-24"
  },
  {
    "id": 142089,
    "address": "Unit 305 - 675 Davis Drive W ",
    "appraisal_id": "unknown",
    "sale_price": 394500.0,
    "gla": 1100.0,
    "lot_size": 0.0,
    "bedrooms": 2.0,
    "bathrooms": 1.0,
    "year_built": 1990.0,
    "garage_spaces": 0.0,
    "structure_type": "Condo Apartment, Apartment ",
    "latitude": 44.2548,
    "longitude": -76.5668,
    "source": "appraisal_dataset",
    "close_date": "2025-02-24"
  },
  {
    "id": 120422,
    "address": "Unit 101 - 1010 Pembridge Crescent ",
    "appraisal_id": "unknown",
    "sale_price": 187000.0,
    "gla": 250.0,
    "lot_size": 0.0,
    "bedrooms": 0.0,
    "bathrooms": 1.0,
    "year_built": 1990.0,
    "garage_spaces": 0.0,
    "structure_type": "Condo Apartment, Bachelor/Studio ",
    "latitude": 44.2507,
    "longitude": -76.5851,
    "source": "appraisal_dataset",
    "close_date": "2025-02-25"
  },
  {
    "id": 141864,
    "address": "Unit 309 - 675 Davis Drive ",
    "appraisal_id": "unknown",
    "sale_price": 360000.0,
    "gla": 1100.0,
    "lot_size": 0.0,
    "bedrooms": 2.0,
    "bathrooms": 1.0,
    "year_built": 1990.0,
    "garage_spaces": 0.0,
    "structure_type": "Condo Apartment, Apartment ",
    "latitude": 44.2548,
    "longitude": -76.5668,
    "source": "appraisal_dataset",
    "close_date": "2025-02-27"
  },
  {
    "id": 78287,
    "address": "530 Canterbury Cres ",
    "appraisal_id": "unknown",
    "sale_price": 686500.0,
    "gla": 2814.0,
    "lot_size": 0.0,
    "bedrooms": 4.0,
    "bathrooms": 1.0,
    "year_built": 1990.0,
    "garage_spaces": 0.0,
    "structure_type": "Detached",
    "latitude": 44.2354,
    "longitude": -76.5833,
    "source": "appraisal_dataset",
    "close_date": "2025-03-04"
  },
  {
    "id": 163644,
    "address": "530 Canterbury Crescent ",
    "appraisal_id": "unknown",
    "sale_price": 686500.0,
    "gla": 2724.0,
    "lot_size": 0.0,
    "bedrooms": 4.0,
    "bathrooms": 1.0,
    "year_built": 1990.0,
    "garage_spaces": 0.0,
    "structure_type": "Detached, 2-Storey ",
    "latitude": 44.2354,
    "longitude": -76.5833,
    "source": "appraisal_dataset",
    "close_date": "2025-03-04"
  },
  {
    "id": 78260,
    "address": "490 Kirkwood Rd ",
    "appraisal_id": "unknown",
    "sale_price": 529000.0,
    "gla": 900.0,
    "lot_size": 0.0,
    "bedrooms": 2.0,
    "bathrooms": 1.0,
    "year_built": 1990.0,
    "garage_spaces": 0.0,
    "structure_type": "Detached",
    "latitude": 44.2353,
    "longitude": -76.5729,
    "source": "appraisal_dataset",
    "close_date": "2025-03-05"
  },
  {
    "id": 78633,
    "address": "829 Larchwood Cres ",
    "appraisal_id": "unknown",
    "sale_price": 585000.0,
    "gla": 1750.0,
    "lot_size": 0.0,
    "bedrooms": 3.0,
    "bathrooms": 1.0,
    "year_built": 40.0,
    "garage_spaces": 0.0,
    "structure_type": "Detached",
    "latitude": 44.2656,
    "longitude": -76.5826,
    "source": "appraisal_dataset",
    "close_date": "2025-03-05"
  },
  {
    "id": 109648,
    "address": "490 Kirkwood Road ",
    "appraisal_id": "unknown",
    "sale_price": 529000.0,
    "gla": 900.0,
    "lot_size": 0.0,
    "bedrooms": 3.0,
    "bathrooms": 1.0,
    "year_built": 1990.0,
    "garage_spaces": 0.0,
    "structure_type": "Detached, Bungalow-Raised ",
    "latitude": 44.2353,
    "longitude": -76.5729,
    "source": "appraisal_dataset",
    "close_date": "2025-03-05"
  },
  {
    "id": 116750,
    "address": "829 Larchwood Crescent ",
    "appraisal_id": "unknown",
    "sale_price": 585000.0,
    "gla": 1750.0,
    "lot_size": 0.0,
    "bedrooms": 4.0,
    "bathrooms": 1.0,
    "year_built": 1990.0,
    "garage_spaces": 0.0,
    "structure_type": "Detached, Sidesplit 3 ",
    "latitude": 44.2656,
    "longitude": -76.5826,
    "source": "appraisal_dataset",
    "close_date": "2025-03-05"
  },
  {
    "id": 78616,
    "address": "1097 Craig Lane ",
    "appraisal_id": "unknown",
    "sale_price": 455000.0,
    "gla": 1300.0,
    "lot_size": 0.0,
    "bedrooms": 3.0,
    "bathrooms": 1.0,
    "year_built": 1990.0,
    "garage_spaces": 0.0,
    "structure_type": "Condo Townhouse, 3-Storey ",
    "latitude": 44.2501,
    "longitude": -76.5923,
    "source": "appraisal_dataset",
    "close_date": "2025-03-06"
  },
  {
    "id": 111504,
    "address": "633 Davis Drive ",
    "appraisal_id": "unknown",
    "sale_price": 479900.0,
    "gla": 1300.0,
    "lot_size": 0.0,
    "bedrooms": 3.0,
    "bathrooms": 1.0,
    "year_built": 1990.0,
    "garage_spaces": 0.0,
    "structure_type": "Semi-Detached, 2-Storey ",
    "latitude": 44.2534,
    "longitude": -76.5673,
    "source": "appraisal_dataset",
    "close_date": "2025-03-06"
  },
  {
    "id": 78850,
    "address": "1512 Crimson Cres ",
    "appraisal_id": "unknown",
    "sale_price": 662000.0,
    "gla": 1750.0,
    "lot_size": 0.0,
    "bedrooms": 3.0,
    "bathrooms": 1.0,
    "year_built": 10.0,
    "garage_spaces": 0.0,
    "structure_type": null,
    "latitude": 44.2645,
    "longitude": -76.5958,
    "source": "appraisal_dataset",
    "close_date": "2025-03-08"
  },
  {
    "id": 163569,
    "address": "1512 Crimson Crescent ",
    "appraisal_id": "unknown",
    "sale_price": 662000.0,
    "gla": 1750.0,
    "lot_size": 0.0,
    "bedrooms": 3.0,
    "bathrooms": 1.0,
    "year_built": 1990.0,
    "garage_spaces": 0.0,
    "structure_type": "Detached, 2-Storey ",
    "latitude": 44.2645,
    "longitude": -76.5958,
    "source": "appraisal_dataset",
    "close_date": "2025-03-08"
  },
  {
    "id": 111352,
    "address": "842 Milford Drive ",
    "appraisal_id": "unknown",
    "sale_price": 475000.0,
    "gla": 1273.0,
    "lot_size": 0.0,
    "bedrooms": 4.0,
    "bathrooms": 1.0,
    "year_built": 1990.0,
    "garage_spaces": 0.0,
    "structure_type": "Semi-Detached, Backsplit 3 ",
    "latitude": 44.2519,
    "longitude": -76.5833,
    "source": "appraisal_dataset",
    "close_date": "2025-03-11"
  },
  {
    "id": 123554,
    "address": "880 Winchester Lane ",
    "appraisal_id": "unknown",
    "sale_price": 425000.0,
    "gla": 1300.0,
    "lot_size": 0.0,
    "bedrooms": 3.0,
    "bathrooms": 1.0,
    "year_built": 1990.0,
    "garage_spaces": 0.0,
    "structure_type": "Condo Townhouse, 2-Storey ",
    "latitude": 44.258,
    "longitude": -76.5784,
    "source": "appraisal_dataset",
    "close_date": "2025-03-12"
  },
  {
    "id": 91145,
    "address": "269 HOLDEN Street ",
    "appraisal_id": "unknown",
    "sale_price": 720000.0,
    "gla": 2250.0,
    "lot_size": 0.0,
    "bedrooms": 4.0,
    "bathrooms": 1.0,
    "year_built": 1990.0,
    "garage_spaces": 0.0,
    "structure_type": "Detached, 2-Storey ",
    "latitude": 44.2642,
    "longitude": -76.5902,
    "source": "appraisal_dataset",
    "close_date": "2025-03-13"
  },
  {
    "id": 91201,
    "address": "781 Downing Street ",
    "appraisal_id": "unknown",
    "sale_price": 574500.0,
    "gla": 1750.0,
    "lot_size": 0.0,
    "bedrooms": 4.0,
    "bathrooms": 1.0,
    "year_built": 1990.0,
    "garage_spaces": 0.0,
    "structure_type": "Detached, Sidesplit 4 ",
    "latitude": 44.2497,
    "longitude": -76.5971,
    "source": "appraisal_dataset",
    "close_date": "2025-03-14"
  },
  {
    "id": 99226,
    "address": "1097 Pinewood Place ",
    "appraisal_id": "unknown",
    "sale_price": 470000.0,
    "gla": 1300.0,
    "lot_size": 0.0,
    "bedrooms": 3.0,
    "bathrooms": 1.0,
    "year_built": 1990.0,
    "garage_spaces": 0.0,
    "structure_type": "Detached, Backsplit 3 ",
    "latitude": 44.262,
    "longitude": -76.582,
    "source": "appraisal_dataset",
    "close_date": "2025-03-15"
  },
  {
    "id": 99254,
    "address": "1105 Dunham Street ",
    "appraisal_id": "unknown",
    "sale_price": 640000.0,
    "gla": 1300.0,
    "lot_size": 0.0,
    "bedrooms": 4.0,
    "bathrooms": 1.0,
    "year_built": 1990.0,
    "garage_spaces": 0.0,
    "structure_type": "Detached, Bungalow-Raised ",
    "latitude": 44.255,
    "longitude": -76.6005,
    "source": "appraisal_dataset",
    "close_date": "2025-03-16"
  },
  {
    "id": 99218,
    "address": "355 Tanglewood Drive ",
    "appraisal_id": "unknown",
    "sale_price": 710000.0,
    "gla": 1750.0,
    "lot_size": 0.0,
    "bedrooms": 4.0,
    "bathrooms": 1.0,
    "year_built": 1990.0,
    "garage_spaces": 0.0,
    "structure_type": "Detached, Bungalow-Raised ",
    "latitude": 44.2323,
    "longitude": -76.5879,
    "source": "appraisal_dataset",
    "close_date": "2025-03-17"
  },
  {
    "id": 207829,
    "address": "Unit 307 - 835 Milford Drive ",
    "appraisal_id": "unknown",
    "sale_price": 320000.0,
    "gla": 850.0,
    "lot_size": 0.0,
    "bedrooms": 2.0,
    "bathrooms": 1.0,
    "year_built": 1990.0,
    "garage_spaces": 0.0,
    "structure_type": "Condo Apartment, 2-Storey ",
    "latitude": 44.2508,
    "longitude": -76.5839,
    "source": "appraisal_dataset",
    "close_date": "2025-03-17"
  },
  {
    "id": 207210,
    "address": "1034 Craig Lane ",
    "appraisal_id": "unknown",
    "sale_price": 400000.0,
    "gla": 1100.0,
    "lot_size": 0.0,
    "bedrooms": 3.0,
    "bathrooms": 1.0,
    "year_built": 1990.0,
    "garage_spaces": 0.0,
    "structure_type": "Condo Townhouse, 2-Storey ",
    "latitude": 44.249,
    "longitude": -76.5911,
    "source": "appraisal_dataset",
    "close_date": "2025-03-21"
  },
  {
    "id": 207974,
    "address": "782 Cedarwood Drive ",
    "appraisal_id": "unknown",
    "sale_price": 515000.0,
    "gla": 900.0,
    "lot_size": 0.0,
    "bedrooms": 4.0,
    "bathrooms": 1.0,
    "year_built": 1990.0,
    "garage_spaces": 0.0,
    "structure_type": "Detached, Bungalow-Raised ",
    "latitude": 44.262,
    "longitude": -76.5795,
    "source": "appraisal_dataset",
    "close_date": "2025-03-23"
  },
  {
    "id": 207672,
    "address": "913 Lancaster Drive ",
    "appraisal_id": "unknown",
    "sale_price": 760000.0,
    "gla": 1900.0,
    "lot_size": 0.0,
    "bedrooms": 5.0,
    "bathrooms": 1.0,
    "year_built": 1990.0,
    "garage_spaces": 0.0,
    "structure_type": "Detached, 2-Storey ",
    "latitude": 44.2562,
    "longitude": -76.5913,
    "source": "appraisal_dataset",
    "close_date": "2025-03-25"
  },
  {
    "id": 208417,
    "address": "767 Downing Street ",
    "appraisal_id": "unknown",
    "sale_price": 561767.0,
    "gla": 1300.0,
    "lot_size": 0.0,
    "bedrooms": 3.0,
    "bathrooms": 1.0,
    "year_built": 1990.0,
    "garage_spaces": 0.0,
    "structure_type": "Detached, Bungalow ",
    "latitude": 44.2484,
    "longitude": -76.5978,
    "source": "appraisal_dataset",
    "close_date": "2025-03-25"
  },
  {
    "id": 215002,
    "address": "Unit 107 - 845 Milford Drive ",
    "appraisal_id": "unknown",
    "sale_price": 262500.0,
    "gla": 550.0,
    "lot_size": 0.0,
    "bedrooms": 1.0,
    "bathrooms": 1.0,
    "year_built": 1990.0,
    "garage_spaces": 0.0,
    "structure_type": "Condo Apartment, Apartment ",
    "latitude": 44.2512,
    "longitude": -76.5843,
    "source": "appraisal_dataset",
    "close_date": "2025-03-27"
  },
  {
    "id": 215008,
    "address": "481 Citation Crescent ",
    "appraisal_id": "unknown",
    "sale_price": 720000.0,
    "gla": 1750.0,
    "lot_size": 0.0,
    "bedrooms": 4.0,
    "bathrooms": 1.0,
    "year_built": 1990.0,
    "garage_spaces": 0.0,
    "structure_type": "Detached, 2-Storey ",
    "latitude": 44.2332,
    "longitude": -76.5976,
    "source": "appraisal_dataset",
    "close_date": "2025-03-27"
  },
  {
    "id": 257465,
    "address": "771 Birkley Place ",
    "appraisal_id": "unknown",
    "sale_price": 425000.0,
    "gla": 1300.0,
    "lot_size": 0.0,
    "bedrooms": 3.0,
    "bathrooms": 1.0,
    "year_built": 1990.0,
    "garage_spaces": 0.0,
    "structure_type": "Detached, Bungalow-Raised ",
    "latitude": 44.2455,
    "longitude": -76.5793,
    "source": "appraisal_dataset",
    "close_date": "2025-03-27"
  },
  {
    "id": 232471,
    "address": "1373 Fisher Crescent ",
    "appraisal_id": "unknown",
    "sale_price": 775000.0,
    "gla": 1500.0,
    "lot_size": 0.0,
    "bedrooms": 5.0,
    "bathrooms": 1.0,
    "year_built": 1990.0,
    "garage_spaces": 0.0,
    "structure_type": "Detached, Bungalow ",
    "latitude": 44.2343,
    "longitude": -76.5961,
    "source": "appraisal_dataset",
    "close_date": "2025-03-29"
  },
  {
    "id": 257263,
    "address": "Unit 90 - 857 Datzell Lane S ",
    "appraisal_id": "unknown",
    "sale_price": 375300.0,
    "gla": 1300.0,
    "lot_size": 0.0,
    "bedrooms": 3.0,
    "bathrooms": 1.0,
    "year_built": 1990.0,
    "garage_spaces": 0.0,
    "structure_type": "Condo Townhouse, 3-Storey ",
    "latitude": 44.2503,
    "longitude": -76.592,
    "source": "appraisal_dataset",
    "close_date": "2025-03-31"
  },
  {
    "id": 260347,
    "address": "897 Lancaster Drive ",
    "appraisal_id": "unknown",
    "sale_price": 660000.0,
    "gla": 1750.0,
    "lot_size": 0.0,
    "bedrooms": 4.0,
    "bathrooms": 1.0,
    "year_built": 1990.0,
    "garage_spaces": 0.0,
    "structure_type": "Detached, Sidesplit 3 ",
    "latitude": 44.256,
    "longitude": -76.5906,
    "source": "appraisal_dataset",
    "close_date": "2025-04-02"
  },
  {
    "id": 260409,
    "address": "825 Purcell Crescent ",
    "appraisal_id": "unknown",
    "sale_price": 580000.0,
    "gla": 1300.0,
    "lot_size": 0.0,
    "bedrooms": 4.0,
    "bathrooms": 1.0,
    "year_built": 1990.0,
    "garage_spaces": 0.0,
    "structure_type": "Detached, Backsplit 4 ",
    "latitude": 44.252,
    "longitude": -76.5797,
    "source": "appraisal_dataset",
    "close_date": "2025-04-02"
  },
  {
    "id": 261617,
    "address": "1239 Katharine Crescent ",
    "appraisal_id": "unknown",
    "sale_price": 760000.0,
    "gla": 1750.0,
    "lot_size": 0.0,
    "bedrooms": 4.0,
    "bathrooms": 1.0,
    "year_built": 1990.0,
    "garage_spaces": 0.0,
    "structure_type": "Detached, 2-Storey ",
    "latitude": 44.2591,
    "longitude": -76.5996,
    "source": "appraisal_dataset",
    "close_date": "2025-04-04"
  },
  {
    "id": 263179,
    "address": "Unit 507 - 675 Davis Drive ",
    "appraisal_id": "unknown",
    "sale_price": 330000.0,
    "gla": 1100.0,
    "lot_size": 0.0,
    "bedrooms": 2.0,
    "bathrooms": 1.0,
    "year_built": 1990.0,
    "garage_spaces": 0.0,
    "structure_type": "Condo Apartment, Apartment ",
    "latitude": 44.2548,
    "longitude": -76.5668,
    "source": "appraisal_dataset",
    "close_date": "2025-04-07"
  },
  {
    "id": 268070,
    "address": "Unit 206 - 835 Milford Drive ",
    "appraisal_id": "unknown",
    "sale_price": 315000.0,
    "gla": 950.0,
    "lot_size": 0.0,
    "bedrooms": 2.0,
    "bathrooms": 1.0,
    "year_built": 1990.0,
    "garage_spaces": 0.0,
    "structure_type": "Condo Apartment, Apartment ",
    "latitude": 44.2508,
    "longitude": -76.5839,
    "source": "appraisal_dataset",
    "close_date": "2025-04-11"
  },
  {
    "id": 269459,
    "address": "888 Clearfield Crescent ",
    "appraisal_id": "unknown",
    "sale_price": 510000.0,
    "gla": 1300.0,
    "lot_size": 0.0,
    "bedrooms": 3.0,
    "bathrooms": 1.0,
    "year_built": 1990.0,
    "garage_spaces": 0.0,
    "structure_type": "Detached, 2-Storey ",
    "latitude": 44.2555,
    "longitude": -76.5776,
    "source": "appraisal_dataset",
    "close_date": "2025-04-11"
  },
  {
    "id": 270117,
    "address": "969 Mona Drive ",
    "appraisal_id": "unknown",
    "sale_price": 710000.0,
    "gla": 2750.0,
    "lot_size": 0.0,
    "bedrooms": 4.0,
    "bathrooms": 1.0,
    "year_built": 1990.0,
    "garage_spaces": 0.0,
    "structure_type": "Detached, 2-Storey ",
    "latitude": 44.2539,
    "longitude": -76.6067,
    "source": "appraisal_dataset",
    "close_date": "2025-04-14"
  },
  {
    "id": 270180,
    "address": "862 Kilburn Street ",
    "appraisal_id": "unknown",
    "sale_price": 630000.0,
    "gla": 1300.0,
    "lot_size": 0.0,
    "bedrooms": 4.0,
    "bathrooms": 1.0,
    "year_built": 1990.0,
    "garage_spaces": 0.0,
    "structure_type": "Detached, Sidesplit ",
    "latitude": 44.2433,
    "longitude": -76.582,
    "source": "appraisal_dataset",
    "close_date": "2025-04-14"
  },
  {
    "id": 270882,
    "address": "1220 Humberside Drive ",
    "appraisal_id": "unknown",
    "sale_price": 888500.0,
    "gla": 2250.0,
    "lot_size": 0.0,
    "bedrooms": 5.0,
    "bathrooms": 1.0,
    "year_built": 1990.0,
    "garage_spaces": 0.0,
    "structure_type": "Detached, 2-Storey ",
    "latitude": 44.2551,
    "longitude": -76.6069,
    "source": "appraisal_dataset",
    "close_date": "2025-04-15"
  },
  {
    "id": 275501,
    "address": "700 LAIDLAW Crescent ",
    "appraisal_id": "unknown",
    "sale_price": 630000.0,
    "gla": 1300.0,
    "lot_size": 0.0,
    "bedrooms": 4.0,
    "bathrooms": 1.0,
    "year_built": 1990.0,
    "garage_spaces": 0.0,
    "structure_type": "Detached, Bungalow-Raised ",
    "latitude": 44.2474,
    "longitude": -76.5894,
    "source": "appraisal_dataset",
    "close_date": "2025-04-15"
  },
  {
    "id": 271433,
    "address": "1246 Carmil Boulevard ",
    "appraisal_id": "unknown",
    "sale_price": 590000.0,
    "gla": 900.0,
    "lot_size": 0.0,
    "bedrooms": 3.0,
    "bathrooms": 1.0,
    "year_built": 1990.0,
    "garage_spaces": 0.0,
    "structure_type": "Detached, Bungalow-Raised ",
    "latitude": 44.2499,
    "longitude": -76.6093,
    "source": "appraisal_dataset",
    "close_date": "2025-04-16"
  },
  {
    "id": 272169,
    "address": "1511 CRIMSON Crescent ",
    "appraisal_id": "unknown",
    "sale_price": 630000.0,
    "gla": 1300.0,
    "lot_size": 0.0,
    "bedrooms": 3.0,
    "bathrooms": 1.0,
    "year_built": 1990.0,
    "garage_spaces": 0.0,
    "structure_type": "Detached, 2-Storey ",
    "latitude": 44.2646,
    "longitude": -76.5963,
    "source": "appraisal_dataset",
    "close_date": "2025-04-16"
  },
  {
    "id": 272834,
    "address": "486 Evangeline Avenue ",
    "appraisal_id": "unknown",
    "sale_price": 507900.0,
    "gla": 1300.0,
    "lot_size": 0.0,
    "bedrooms": 3.0,
    "bathrooms": 1.0,
    "year_built": 1990.0,
    "garage_spaces": 0.0,
    "structure_type": "Semi-Detached, 2-Storey ",
    "latitude": 44.2331,
    "longitude": -76.5939,
    "source": "appraisal_dataset",
    "close_date": "2025-04-17"
  },
  {
    "id": 273317,
    "address": "834 CEDARWOOD Drive ",
    "appraisal_id": "unknown",
    "sale_price": 325000.0,
    "gla": 1300.0,
    "lot_size": 0.0,
    "bedrooms": 3.0,
    "bathrooms": 1.0,
    "year_built": 1990.0,
    "garage_spaces": 0.0,
    "structure_type": "Semi-Detached, 2-Storey ",
    "latitude": 44.2627,
    "longitude": -76.5825,
    "source": "appraisal_dataset",
    "close_date": "2025-04-17"
  },
  {
    "id": 274709,
    "address": "941 AMBLESIDE Crescent ",
    "appraisal_id": "unknown",
    "sale_price": 850000.0,
    "gla": 1750.0,
    "lot_size": 0.0,
    "bedrooms": 6.0,
    "bathrooms": 1.0,
    "year_built": 1990.0,
    "garage_spaces": 0.0,
    "structure_type": "Detached, 2-Storey ",
    "latitude": 44.2556,
    "longitude": -76.5823,
    "source": "appraisal_dataset",
    "close_date": "2025-04-21"
  },
  {
    "id": 275860,
    "address": "693 Millwood Drive ",
    "appraisal_id": "unknown",
    "sale_price": 630000.0,
    "gla": 1750.0,
    "lot_size": 0.0,
    "bedrooms": 2.0,
    "bathrooms": 1.0,
    "year_built": 1990.0,
    "garage_spaces": 0.0,
    "structure_type": "Semi-Detached, Bungalow ",
    "latitude": 44.2359,
    "longitude": -76.5882,
    "source": "appraisal_dataset",
    "close_date": "2025-04-22"
  },
  {
    "id": 275456,
    "address": "852 Development Drive ",
    "appraisal_id": "unknown",
    "sale_price": 677500.0,
    "gla": 2250.0,
    "lot_size": 0.0,
    "bedrooms": 4.0,
    "bathrooms": 1.0,
    "year_built": 1990.0,
    "garage_spaces": 0.0,
    "structure_type": "Detached, Sidesplit 4 ",
    "latitude": 44.2409,
    "longitude": -76.5808,
    "source": "appraisal_dataset",
    "close_date": "2025-04-23"
  },
  {
    "id": 276819,
    "address": "1173 Bentley Terrace ",
    "appraisal_id": "unknown",
    "sale_price": 895000.0,
    "gla": 2250.0,
    "lot_size": 0.0,
    "bedrooms": 4.0,
    "bathrooms": 1.0,
    "year_built": 1990.0,
    "garage_spaces": 0.0,
    "structure_type": "Detached, 2-Storey ",
    "latitude": 44.2562,
    "longitude": -76.6007,
    "source": "appraisal_dataset",
    "close_date": "2025-04-24"
  },
  {
    "id": 278223,
    "address": "950 Oakview Avenue ",
    "appraisal_id": "unknown",
    "sale_price": 355000.0,
    "gla": 1100.0,
    "lot_size": 0.0,
    "bedrooms": 3.0,
    "bathrooms": 1.0,
    "year_built": 1990.0,
    "garage_spaces": 0.0,
    "structure_type": "Condo Townhouse, 2-Storey ",
    "latitude": 44.2486,
    "longitude": -76.5889,
    "source": "appraisal_dataset",
    "close_date": "2025-04-24"
  },
  {
    "id": 278808,
    "address": "691 HIGH GATE PARK Drive ",
    "appraisal_id": "unknown",
    "sale_price": 620000.0,
    "gla": 1300.0,
    "lot_size": 0.0,
    "bedrooms": 4.0,
    "bathrooms": 1.0,
    "year_built": 1990.0,
    "garage_spaces": 0.0,
    "structure_type": "Detached, Bungalow ",
    "latitude": 44.245,
    "longitude": -76.6036,
    "source": "appraisal_dataset",
    "close_date": "2025-04-25"
  },
  {
    "id": 279765,
    "address": "994 Hudson Drive ",
    "appraisal_id": "unknown",
    "sale_price": 625000.0,
    "gla": 1750.0,
    "lot_size": 0.0,
    "bedrooms": 3.0,
    "bathrooms": 1.0,
    "year_built": 1990.0,
    "garage_spaces": 0.0,
    "structure_type": "Detached, Bungalow-Raised ",
    "latitude": 44.2453,
    "longitude": -76.5899,
    "source": "appraisal_dataset",
    "close_date": "2025-04-27"
  },
  {
    "id": 279799,
    "address": "725 Cedarwood Drive ",
    "appraisal_id": "unknown",
    "sale_price": 525000.0,
    "gla": 1300.0,
    "lot_size": 0.0,
    "bedrooms": 3.0,
    "bathrooms": 1.0,
    "year_built": 1990.0,
    "garage_spaces": 0.0,
    "structure_type": "Detached, 2-Storey ",
    "latitude": 44.2638,
    "longitude": -76.5771,
    "source": "appraisal_dataset",
    "close_date": "2025-04-28"
  },
  {
    "id": 280524,
    "address": "1121 Lincoln Drive ",
    "appraisal_id": "unknown",
    "sale_price": 760000.0,
    "gla": 1300.0,
    "lot_size": 0.0,
    "bedrooms": 4.0,
    "bathrooms": 1.0,
    "year_built": 1990.0,
    "garage_spaces": 0.0,
    "structure_type": "Detached, Bungalow ",
    "latitude": 44.2427,
    "longitude": -76.5996,
    "source": "appraisal_dataset",
    "close_date": "2025-04-28"
  },
  {
    "id": 281531,
    "address": "Unit 406 - 649 Davis Drive ",
    "appraisal_id": "unknown",
    "sale_price": 368000.0,
    "gla": 1100.0,
    "lot_size": 0.0,
    "bedrooms": 2.0,
    "bathrooms": 1.0,
    "year_built": 1990.0,
    "garage_spaces": 0.0,
    "structure_type": "Common Element Condo, Apartment ",
    "latitude": 44.2541,
    "longitude": -76.5675,
    "source": "appraisal_dataset",
    "close_date": "2025-04-29"
  },
  {
    "id": 287522,
    "address": "1125 Basswood Place ",
    "appraisal_id": "unknown",
    "sale_price": 565000.0,
    "gla": 1300.0,
    "lot_size": 0.0,
    "bedrooms": 4.0,
    "bathrooms": 1.0,
    "year_built": 1990.0,
    "garage_spaces": 0.0,
    "structure_type": "Detached, 2-Storey ",
    "latitude": 44.2641,
    "longitude": -76.5813,
    "source": "appraisal_dataset",
    "close_date": "2025-04-30"
  },
  {
    "id": 288877,
    "address": "1149 Hudson Drive ",
    "appraisal_id": "unknown",
    "sale_price": 648000.0,
    "gla": 1750.0,
    "lot_size": 0.0,
    "bedrooms": 4.0,
    "bathrooms": 1.0,
    "year_built": 1990.0,
    "garage_spaces": 0.0,
    "structure_type": "Detached, 1 1/2 Storey ",
    "latitude": 44.2483,
    "longitude": -76.6018,
    "source": "appraisal_dataset",
    "close_date": "2025-04-30"
  },
  {
    "id": 283090,
    "address": "479 Kirkwood Road ",
    "appraisal_id": "unknown",
    "sale_price": 575000.0,
    "gla": 900.0,
    "lot_size": 0.0,
    "bedrooms": 4.0,
    "bathrooms": 1.0,
    "year_built": 1990.0,
    "garage_spaces": 0.0,
    "structure_type": "Detached, Bungalow ",
    "latitude": 44.2347,
    "longitude": -76.5735,
    "source": "appraisal_dataset",
    "close_date": "2025-05-01"
  },
  {
    "id": 284017,
    "address": "901 Lombardy Street ",
    "appraisal_id": "unknown",
    "sale_price": 680000.0,
    "gla": 1300.0,
    "lot_size": 0.0,
    "bedrooms": 3.0,
    "bathrooms": 1.0,
    "year_built": 1990.0,
    "garage_spaces": 0.0,
    "structure_type": "Detached, 2-Storey ",
    "latitude": 44.239,
    "longitude": -76.5856,
    "source": "appraisal_dataset",
    "close_date": "2025-05-01"
  },
  {
    "id": 283797,
    "address": "Unit 510 - 675 Davis Drive ",
    "appraisal_id": "unknown",
    "sale_price": 440000.0,
    "gla": 1300.0,
    "lot_size": 0.0,
    "bedrooms": 3.0,
    "bathrooms": 1.0,
    "year_built": 1990.0,
    "garage_spaces": 0.0,
    "structure_type": "Condo Apartment, Apartment ",
    "latitude": 44.2548,
    "longitude": -76.5668,
    "source": "appraisal_dataset",
    "close_date": "2025-05-02"
  },
  {
    "id": 284564,
    "address": "900 DANBURY Road ",
    "appraisal_id": "unknown",
    "sale_price": 597000.0,
    "gla": 1300.0,
    "lot_size": 0.0,
    "bedrooms": 3.0,
    "bathrooms": 1.0,
    "year_built": 1990.0,
    "garage_spaces": 0.0,
    "structure_type": "Detached, Other ",
    "latitude": 44.2485,
    "longitude": -76.5859,
    "source": "appraisal_dataset",
    "close_date": "2025-05-02"
  },
  {
    "id": 284573,
    "address": "731 Downing Street ",
    "appraisal_id": "unknown",
    "sale_price": 650000.0,
    "gla": 1300.0,
    "lot_size": 0.0,
    "bedrooms": 6.0,
    "bathrooms": 1.0,
    "year_built": 1990.0,
    "garage_spaces": 0.0,
    "structure_type": "Duplex, Bungalow ",
    "latitude": 44.2466,
    "longitude": -76.5974,
    "source": "appraisal_dataset",
    "close_date": "2025-05-02"
  },
  {
    "id": 286529,
    "address": "998 Sprucewood Crescent ",
    "appraisal_id": "unknown",
    "sale_price": 440000.0,
    "gla": 1300.0,
    "lot_size": 0.0,
    "bedrooms": 3.0,
    "bathrooms": 1.0,
    "year_built": 1990.0,
    "garage_spaces": 0.0,
    "structure_type": "Semi-Detached, 2-Storey ",
    "latitude": 44.2605,
    "longitude": -76.5795,
    "source": "appraisal_dataset",
    "close_date": "2025-05-05"
  },
  {
    "id": 286547,
    "address": "528 Beth Crescent ",
    "appraisal_id": "unknown",
    "sale_price": 605000.0,
    "gla": 1300.0,
    "lot_size": 0.0,
    "bedrooms": 3.0,
    "bathrooms": 1.0,
    "year_built": 1990.0,
    "garage_spaces": 0.0,
    "structure_type": "Detached, 2-Storey ",
    "latitude": 44.2637,
    "longitude": -76.5917,
    "source": "appraisal_dataset",
    "close_date": "2025-05-05"
  },
  {
    "id": 286347,
    "address": "1063 Basswood Place ",
    "appraisal_id": "unknown",
    "sale_price": 490000.0,
    "gla": 900.0,
    "lot_size": 0.0,
    "bedrooms": 3.0,
    "bathrooms": 1.0,
    "year_built": 1990.0,
    "garage_spaces": 0.0,
    "structure_type": "Semi-Detached, 2-Storey ",
    "latitude": 44.2631,
    "longitude": -76.5835,
    "source": "appraisal_dataset",
    "close_date": "2025-05-06"
  },
  {
    "id": 286387,
    "address": "1349 Tremont Drive ",
    "appraisal_id": "unknown",
    "sale_price": 585000.0,
    "gla": 1750.0,
    "lot_size": 0.0,
    "bedrooms": 3.0,
    "bathrooms": 1.0,
    "year_built": 1990.0,
    "garage_spaces": 0.0,
    "structure_type": "Freehold Townhouse, 2-Storey ",
    "latitude": 44.2661,
    "longitude": -76.5915,
    "source": "appraisal_dataset",
    "close_date": "2025-05-06"
  },
  {
    "id": 286973,
    "address": "371 Tanglewood Drive ",
    "appraisal_id": "unknown",
    "sale_price": 895000.0,
    "gla": 2250.0,
    "lot_size": 0.0,
    "bedrooms": 4.0,
    "bathrooms": 1.0,
    "year_built": 1990.0,
    "garage_spaces": 0.0,
    "structure_type": "Detached, 2-Storey ",
    "latitude": 44.2323,
    "longitude": -76.5872,
    "source": "appraisal_dataset",
    "close_date": "2025-05-06"
  },
  {
    "id": 301871,
    "address": "1203 Carfa Crescent ",
    "appraisal_id": "unknown",
    "sale_price": 617207.0,
    "gla": 1750.0,
    "lot_size": 0.0,
    "bedrooms": 3.0,
    "bathrooms": 1.0,
    "year_built": 1990.0,
    "garage_spaces": 0.0,
    "structure_type": "Semi-Detached, 2-Storey ",
    "latitude": 44.2643,
    "longitude": -76.6002,
    "source": "appraisal_dataset",
    "close_date": "2025-05-07"
  },
  {
    "id": 288151,
    "address": "929 Clearfield Crescent ",
    "appraisal_id": "unknown",
    "sale_price": 510000.0,
    "gla": 1300.0,
    "lot_size": 0.0,
    "bedrooms": 3.0,
    "bathrooms": 1.0,
    "year_built": 1990.0,
    "garage_spaces": 0.0,
    "structure_type": "Semi-Detached, 2-Storey ",
    "latitude": 44.2563,
    "longitude": -76.5779,
    "source": "appraisal_dataset",
    "close_date": "2025-05-08"
  },
  {
    "id": 288750,
    "address": "1038 Springfield Drive ",
    "appraisal_id": "unknown",
    "sale_price": 517900.0,
    "gla": 1300.0,
    "lot_size": 0.0,
    "bedrooms": 3.0,
    "bathrooms": 1.0,
    "year_built": 1990.0,
    "garage_spaces": 0.0,
    "structure_type": "Semi-Detached, 2-Storey ",
    "latitude": 44.2308,
    "longitude": -76.5915,
    "source": "appraisal_dataset",
    "close_date": "2025-05-08"
  },
  {
    "id": 289485,
    "address": "958 Chancery Street ",
    "appraisal_id": "unknown",
    "sale_price": 679000.0,
    "gla": 2250.0,
    "lot_size": 0.0,
    "bedrooms": 4.0,
    "bathrooms": 1.0,
    "year_built": 1990.0,
    "garage_spaces": 0.0,
    "structure_type": "Detached, 2-Storey ",
    "latitude": 44.2551,
    "longitude": -76.5904,
    "source": "appraisal_dataset",
    "close_date": "2025-05-08"
  },
  {
    "id": 290185,
    "address": "1110 Dunham Street ",
    "appraisal_id": "unknown",
    "sale_price": 750000.0,
    "gla": 1750.0,
    "lot_size": 0.0,
    "bedrooms": 4.0,
    "bathrooms": 1.0,
    "year_built": 1990.0,
    "garage_spaces": 0.0,
    "structure_type": "Detached, 2-Storey ",
    "latitude": 44.2545,
    "longitude": -76.5997,
    "source": "appraisal_dataset",
    "close_date": "2025-05-09"
  },
  {
    "id": 300594,
    "address": "685 Roosevelt Drive ",
    "appraisal_id": "unknown",
    "sale_price": 530000.0,
    "gla": 1300.0,
    "lot_size": 0.0,
    "bedrooms": 2.0,
    "bathrooms": 1.0,
    "year_built": 1990.0,
    "garage_spaces": 0.0,
    "structure_type": "Detached, Bungalow ",
    "latitude": 44.231,
    "longitude": -76.5882,
    "source": "appraisal_dataset",
    "close_date": "2025-05-11"
  },
  {
    "id": 297301,
    "address": "638 Myers Point Road",
    "appraisal_id": "unknown",
    "sale_price": 710000.0,
    "gla": 1136.0,
    "lot_size": 0.0,
    "bedrooms": 2.0,
    "bathrooms": 1.0,
    "year_built": 2010.0,
    "garage_spaces": 0.0,
    "structure_type": "Single Family",
    "latitude": 44.7765,
    "longitude": -63.0424,
    "source": "appraisal_dataset",
    "close_date": "2024-10-30"
  },
  {
    "id": 292631,
    "address": "281 West Jeddore Road",
    "appraisal_id": "unknown",
    "sale_price": 450000.0,
    "gla": 1026.0,
    "lot_size": 0.0,
    "bedrooms": 3.0,
    "bathrooms": 1.0,
    "year_built": 1990.0,
    "garage_spaces": 0.0,
    "structure_type": "Single Family",
    "latitude": 44.7683,
    "longitude": -63.0714,
    "source": "appraisal_dataset",
    "close_date": "2024-11-01"
  },
  {
    "id": 297309,
    "address": "46 Ostrea Lake Road",
    "appraisal_id": "unknown",
    "sale_price": 930000.0,
    "gla": 2117.0,
    "lot_size": 0.0,
    "bedrooms": 3.0,
    "bathrooms": 1.0,
    "year_built": 1967.0,
    "garage_spaces": 0.0,
    "structure_type": "Single Family",
    "latitude": 44.7809,
    "longitude": -63.1032,
    "source": "appraisal_dataset",
    "close_date": "2024-11-01"
  },
  {
    "id": 293953,
    "address": "15 Macdonald Lane",
    "appraisal_id": "unknown",
    "sale_price": 430000.0,
    "gla": 816.0,
    "lot_size": 0.0,
    "bedrooms": 2.0,
    "bathrooms": 1.0,
    "year_built": 2021.0,
    "garage_spaces": 0.0,
    "structure_type": "Single Family",
    "latitude": 44.7889,
    "longitude": -63.1428,
    "source": "appraisal_dataset",
    "close_date": "2024-11-08"
  },
  {
    "id": 293612,
    "address": "8426 Highway 7",
    "appraisal_id": "unknown",
    "sale_price": 395000.0,
    "gla": 1350.0,
    "lot_size": 0.0,
    "bedrooms": 3.0,
    "bathrooms": 1.0,
    "year_built": 1918.0,
    "garage_spaces": 0.0,
    "structure_type": "Single Family",
    "latitude": 44.7903,
    "longitude": -63.1199,
    "source": "appraisal_dataset",
    "close_date": "2024-11-28"
  },
  {
    "id": 294897,
    "address": "569 West Jeddore Road",
    "appraisal_id": "unknown",
    "sale_price": 378275.0,
    "gla": 1320.0,
    "lot_size": 0.0,
    "bedrooms": 3.0,
    "bathrooms": 1.0,
    "year_built": 2013.0,
    "garage_spaces": 0.0,
    "structure_type": "Single Family",
    "latitude": 44.7584,
    "longitude": -63.0603,
    "source": "appraisal_dataset",
    "close_date": "2024-12-06"
  },
  {
    "id": 293390,
    "address": "9051 Highway 7",
    "appraisal_id": "unknown",
    "sale_price": 415000.0,
    "gla": 1092.0,
    "lot_size": 0.0,
    "bedrooms": 3.0,
    "bathrooms": 1.0,
    "year_built": 1995.0,
    "garage_spaces": 0.0,
    "structure_type": "Single Family",
    "latitude": 44.7788,
    "longitude": -63.0876,
    "source": "appraisal_dataset",
    "close_date": "2024-12-09"
  },
  {
    "id": 292232,
    "address": "6547 Highway 7",
    "appraisal_id": "unknown",
    "sale_price": 420000.0,
    "gla": 1100.0,
    "lot_size": 0.0,
    "bedrooms": 3.0,
    "bathrooms": 1.0,
    "year_built": 1945.0,
    "garage_spaces": 0.0,
    "structure_type": "Single Family",
    "latitude": 44.7648,
    "longitude": -63.2169,
    "source": "appraisal_dataset",
    "close_date": "2024-12-13"
  },
  {
    "id": 292152,
    "address": "8179 7 Highway",
    "appraisal_id": "unknown",
    "sale_price": 325000.0,
    "gla": 1078.0,
    "lot_size": 0.0,
    "bedrooms": 2.0,
    "bathrooms": 1.0,
    "year_built": 1990.0,
    "garage_spaces": 0.0,
    "structure_type": "Single Family",
    "latitude": 44.7922,
    "longitude": -63.1337,
    "source": "appraisal_dataset",
    "close_date": "2024-12-27"
  },
  {
    "id": 263677,
    "address": "205 East Petpeswick Road, Musquodoboit Harbour",
    "appraisal_id": "unknown",
    "sale_price": 135000.0,
    "gla": 616.0,
    "lot_size": 0.0,
    "bedrooms": 2.0,
    "bathrooms": 1.0,
    "year_built": 1934.0,
    "garage_spaces": 0.0,
    "structure_type": "Detached",
    "latitude": 44.7784,
    "longitude": -63.1482,
    "source": "appraisal_dataset",
    "close_date": "2025-01-10"
  },
  {
    "id": 295026,
    "address": "2 Willowdale Drive",
    "appraisal_id": "unknown",
    "sale_price": 500000.0,
    "gla": 1182.0,
    "lot_size": 0.0,
    "bedrooms": 3.0,
    "bathrooms": 1.0,
    "year_built": 1998.0,
    "garage_spaces": 0.0,
    "structure_type": "Single Family",
    "latitude": 44.7832,
    "longitude": -63.1657,
    "source": "appraisal_dataset",
    "close_date": "2025-02-06"
  },
  {
    "id": 294018,
    "address": "6820 Highway 7",
    "appraisal_id": "unknown",
    "sale_price": 500000.0,
    "gla": 900.0,
    "lot_size": 0.0,
    "bedrooms": 3.0,
    "bathrooms": 1.0,
    "year_built": 1980.0,
    "garage_spaces": 0.0,
    "structure_type": "Single Family",
    "latitude": 44.7747,
    "longitude": -63.2075,
    "source": "appraisal_dataset",
    "close_date": "2025-03-21"
  },
  {
    "id": 299237,
    "address": "425 Highway 357",
    "appraisal_id": "unknown",
    "sale_price": 108000.0,
    "gla": 320.0,
    "lot_size": 0.0,
    "bedrooms": 1.0,
    "bathrooms": 1.0,
    "year_built": 1875.0,
    "garage_spaces": 0.0,
    "structure_type": "Single Family",
    "latitude": 44.8016,
    "longitude": -63.1651,
    "source": "appraisal_dataset",
    "close_date": "2025-04-02"
  },
  {
    "id": 293449,
    "address": "9559 Highway 7",
    "appraisal_id": "unknown",
    "sale_price": 285000.0,
    "gla": 1130.0,
    "lot_size": 0.0,
    "bedrooms": 2.0,
    "bathrooms": 1.0,
    "year_built": 1950.0,
    "garage_spaces": 0.0,
    "structure_type": "Single Family",
    "latitude": 44.7778,
    "longitude": -63.0583,
    "source": "appraisal_dataset",
    "close_date": "2025-04-04"
  },
  {
    "id": 299502,
    "address": "Lot 1 Highway 357",
    "appraisal_id": "unknown",
    "sale_price": 420000.0,
    "gla": 1185.0,
    "lot_size": 0.0,
    "bedrooms": 2.0,
    "bathrooms": 1.0,
    "year_built": 1990.0,
    "garage_spaces": 0.0,
    "structure_type": "Single Family",
    "latitude": 44.7873,
    "longitude": -63.1481,
    "source": "appraisal_dataset",
    "close_date": "2025-04-08"
  },
  {
    "id": 298924,
    "address": "8210 Highway 7",
    "appraisal_id": "unknown",
    "sale_price": 263500.0,
    "gla": 440.0,
    "lot_size": 0.0,
    "bedrooms": 2.0,
    "bathrooms": 1.0,
    "year_built": 1990.0,
    "garage_spaces": 0.0,
    "structure_type": "Single Family",
    "latitude": 44.7919,
    "longitude": -63.1318,
    "source": "appraisal_dataset",
    "close_date": "2025-04-14"
  },
  {
    "id": 299717,
    "address": "215 Scotsdale Drive",
    "appraisal_id": "unknown",
    "sale_price": 999999.0,
    "gla": 3675.0,
    "lot_size": 0.0,
    "bedrooms": 5.0,
    "bathrooms": 1.0,
    "year_built": 2004.0,
    "garage_spaces": 0.0,
    "structure_type": "Single Family",
    "latitude": 44.787,
    "longitude": -63.1852,
    "source": "appraisal_dataset",
    "close_date": "2025-04-24"
  },
  {
    "id": 299230,
    "address": "Unit 7  East Petpeswick Road",
    "appraisal_id": "unknown",
    "sale_price": 545000.0,
    "gla": 1472.0,
    "lot_size": 0.0,
    "bedrooms": 3.0,
    "bathrooms": 1.0,
    "year_built": 1990.0,
    "garage_spaces": 0.0,
    "structure_type": "Single Family",
    "latitude": 44.7865,
    "longitude": -63.1475,
    "source": "appraisal_dataset",
    "close_date": "2025-05-02"
  },
  {
    "id": 116134,
    "address": "246 Waterbrook Lane ",
    "appraisal_id": "unknown",
    "sale_price": 717000.0,
    "gla": 1444.0,
    "lot_size": 0.0,
    "bedrooms": 3.0,
    "bathrooms": 1.0,
    "year_built": 1990.0,
    "garage_spaces": 0.0,
    "structure_type": "Row/Townhouse, Two Story ",
    "latitude": 43.3736,
    "longitude": -80.4322,
    "source": "appraisal_dataset",
    "close_date": "2024-12-02"
  },
  {
    "id": 144486,
    "address": "115 Templewood Drive ",
    "appraisal_id": "unknown",
    "sale_price": 695000.0,
    "gla": 1100.0,
    "lot_size": 0.0,
    "bedrooms": 3.0,
    "bathrooms": 1.0,
    "year_built": 1990.0,
    "garage_spaces": 0.0,
    "structure_type": "Row/Townhouse, Two Story ",
    "latitude": 43.3919,
    "longitude": -80.4622,
    "source": "appraisal_dataset",
    "close_date": "2024-12-02"
  },
  {
    "id": 172439,
    "address": "237 Shady Glen Crescent ",
    "appraisal_id": "unknown",
    "sale_price": 952200.0,
    "gla": 2377.0,
    "lot_size": 0.0,
    "bedrooms": 4.0,
    "bathrooms": 1.0,
    "year_built": 2017.0,
    "garage_spaces": 0.0,
    "structure_type": "Single Family Residence, Two Story ",
    "latitude": 43.3871,
    "longitude": -80.4994,
    "source": "appraisal_dataset",
    "close_date": "2024-12-02"
  },
  {
    "id": 196324,
    "address": "540 Doonwoods Crescent ",
    "appraisal_id": "unknown",
    "sale_price": 943000.0,
    "gla": 1750.0,
    "lot_size": 0.0,
    "bedrooms": 3.0,
    "bathrooms": 1.0,
    "year_built": 1990.0,
    "garage_spaces": 0.0,
    "structure_type": "Detached, 2-Storey ",
    "latitude": 43.371,
    "longitude": -80.435,
    "source": "appraisal_dataset",
    "close_date": "2024-12-02"
  },
  {
    "id": 188715,
    "address": "619 Rush Meadow Crescent ",
    "appraisal_id": "unknown",
    "sale_price": 1003000.0,
    "gla": 2093.0,
    "lot_size": 0.0,
    "bedrooms": 5.0,
    "bathrooms": 1.0,
    "year_built": 1990.0,
    "garage_spaces": 0.0,
    "structure_type": "Single Family Residence, Two Story ",
    "latitude": 43.3887,
    "longitude": -80.4627,
    "source": "appraisal_dataset",
    "close_date": "2024-12-03"
  },
  {
    "id": 192171,
    "address": "299 Moorlands Crescent ",
    "appraisal_id": "unknown",
    "sale_price": 1150100.0,
    "gla": 2801.0,
    "lot_size": 0.0,
    "bedrooms": 4.0,
    "bathrooms": 1.0,
    "year_built": 2015.0,
    "garage_spaces": 0.0,
    "structure_type": "Single Family Residence, Two Story ",
    "latitude": 43.3745,
    "longitude": -80.444,
    "source": "appraisal_dataset",
    "close_date": "2024-12-03"
  },
  {
    "id": 130431,
    "address": "229 West oak Tr ",
    "appraisal_id": "unknown",
    "sale_price": 553000.0,
    "gla": 1500.0,
    "lot_size": 0.0,
    "bedrooms": 2.0,
    "bathrooms": 1.0,
    "year_built": 1990.0,
    "garage_spaces": 0.0,
    "structure_type": "Condo Townhouse, 3-Storey ",
    "latitude": 43.3836,
    "longitude": -80.4917,
    "source": "appraisal_dataset",
    "close_date": "2024-12-04"
  },
  {
    "id": 143281,
    "address": "98 Pony Way ",
    "appraisal_id": "unknown",
    "sale_price": 750000.0,
    "gla": 1750.0,
    "lot_size": 0.0,
    "bedrooms": 3.0,
    "bathrooms": 1.0,
    "year_built": 1990.0,
    "garage_spaces": 0.0,
    "structure_type": "Freehold Townhouse, 2-Storey ",
    "latitude": 43.3842,
    "longitude": -80.4751,
    "source": "appraisal_dataset",
    "close_date": "2024-12-04"
  },
  {
    "id": 152858,
    "address": "Unit Lot 0004 - 15 Pine Warbler Street ",
    "appraisal_id": "unknown",
    "sale_price": 797400.0,
    "gla": 1440.0,
    "lot_size": 0.0,
    "bedrooms": 3.0,
    "bathrooms": 1.0,
    "year_built": 1990.0,
    "garage_spaces": 0.0,
    "structure_type": "Single Family Residence, Two Story ",
    "latitude": 43.3668,
    "longitude": -80.4445,
    "source": "appraisal_dataset",
    "close_date": "2024-12-04"
  },
  {
    "id": 152864,
    "address": "913 Robert Ferrie Drive ",
    "appraisal_id": "unknown",
    "sale_price": 788000.0,
    "gla": 1807.0,
    "lot_size": 0.0,
    "bedrooms": 3.0,
    "bathrooms": 1.0,
    "year_built": 1990.0,
    "garage_spaces": 0.0,
    "structure_type": "Row/Townhouse, Two Story ",
    "latitude": 43.3784,
    "longitude": -80.45,
    "source": "appraisal_dataset",
    "close_date": "2024-12-04"
  },
  {
    "id": 152869,
    "address": "230 Greenwater Place ",
    "appraisal_id": "unknown",
    "sale_price": 771000.0,
    "gla": 1750.0,
    "lot_size": 0.0,
    "bedrooms": 3.0,
    "bathrooms": 1.0,
    "year_built": 1990.0,
    "garage_spaces": 0.0,
    "structure_type": "Freehold Townhouse, 2-Storey ",
    "latitude": 43.3771,
    "longitude": -80.4454,
    "source": "appraisal_dataset",
    "close_date": "2024-12-04"
  },
  {
    "id": 158285,
    "address": "34 Renfrew Street ",
    "appraisal_id": "unknown",
    "sale_price": 715000.0,
    "gla": 1479.0,
    "lot_size": 0.0,
    "bedrooms": 3.0,
    "bathrooms": 1.0,
    "year_built": 2014.0,
    "garage_spaces": 0.0,
    "structure_type": "Row/Townhouse, Two Story ",
    "latitude": 43.3839,
    "longitude": -80.4715,
    "source": "appraisal_dataset",
    "close_date": "2024-12-05"
  },
  {
    "id": 167128,
    "address": "27 Rush Meadow Street ",
    "appraisal_id": "unknown",
    "sale_price": 935000.0,
    "gla": 2103.0,
    "lot_size": 0.0,
    "bedrooms": 5.0,
    "bathrooms": 1.0,
    "year_built": 2004.0,
    "garage_spaces": 0.0,
    "structure_type": "Single Family Residence, Two Story ",
    "latitude": 43.3897,
    "longitude": -80.4629,
    "source": "appraisal_dataset",
    "close_date": "2024-12-05"
  },
  {
    "id": 166997,
    "address": "2 Castlebay Street ",
    "appraisal_id": "unknown",
    "sale_price": 915000.0,
    "gla": 2250.0,
    "lot_size": 0.0,
    "bedrooms": 4.0,
    "bathrooms": 1.0,
    "year_built": 1990.0,
    "garage_spaces": 0.0,
    "structure_type": "Detached, 2-Storey ",
    "latitude": 43.3837,
    "longitude": -80.4712,
    "source": "appraisal_dataset",
    "close_date": "2024-12-09"
  },
  {
    "id": 134236,
    "address": "122 Rochefort Street ",
    "appraisal_id": "unknown",
    "sale_price": 655000.0,
    "gla": 1352.0,
    "lot_size": 0.0,
    "bedrooms": 3.0,
    "bathrooms": 1.0,
    "year_built": 2012.0,
    "garage_spaces": 0.0,
    "structure_type": "Row/Townhouse, Two Story ",
    "latitude": 43.3844,
    "longitude": -80.4788,
    "source": "appraisal_dataset",
    "close_date": "2024-12-10"
  },
  {
    "id": 166919,
    "address": "23 Pondcliffe Drive ",
    "appraisal_id": "unknown",
    "sale_price": 930000.0,
    "gla": 2170.0,
    "lot_size": 0.0,
    "bedrooms": 3.0,
    "bathrooms": 1.0,
    "year_built": 1990.0,
    "garage_spaces": 0.0,
    "structure_type": "Single Family Residence, 3 Storey ",
    "latitude": 43.3819,
    "longitude": -80.4417,
    "source": "appraisal_dataset",
    "close_date": "2024-12-10"
  },
  {
    "id": 141977,
    "address": "Unit 5D - 255 Maitland Street ",
    "appraisal_id": "unknown",
    "sale_price": 370000.0,
    "gla": 628.0,
    "lot_size": 0.0,
    "bedrooms": 1.0,
    "bathrooms": 1.0,
    "year_built": 2013.0,
    "garage_spaces": 0.0,
    "structure_type": "Row/Townhouse, Stacked Townhouse ",
    "latitude": 43.3879,
    "longitude": -80.4774,
    "source": "appraisal_dataset",
    "close_date": "2024-12-12"
  },
  {
    "id": 106697,
    "address": "137 Winding Wood Crescent ",
    "appraisal_id": "unknown",
    "sale_price": 840000.0,
    "gla": 2001.0,
    "lot_size": 0.0,
    "bedrooms": 5.0,
    "bathrooms": 1.0,
    "year_built": 1990.0,
    "garage_spaces": 0.0,
    "structure_type": "Single Family Residence, Backsplit ",
    "latitude": 43.3825,
    "longitude": -80.4249,
    "source": "appraisal_dataset",
    "close_date": "2024-12-16"
  },
  {
    "id": 143533,
    "address": "120 Watermill Street ",
    "appraisal_id": "unknown",
    "sale_price": 775000.0,
    "gla": 1831.0,
    "lot_size": 0.0,
    "bedrooms": 3.0,
    "bathrooms": 1.0,
    "year_built": 2018.0,
    "garage_spaces": 0.0,
    "structure_type": "Row/Townhouse, Two Story ",
    "latitude": 43.373,
    "longitude": -80.4302,
    "source": "appraisal_dataset",
    "close_date": "2024-12-17"
  },
  {
    "id": 143475,
    "address": "24 Roywood Street ",
    "appraisal_id": "unknown",
    "sale_price": 788000.0,
    "gla": 1606.0,
    "lot_size": 0.0,
    "bedrooms": 3.0,
    "bathrooms": 1.0,
    "year_built": 2023.0,
    "garage_spaces": 0.0,
    "structure_type": "Row/Townhouse, Two Story ",
    "latitude": 43.3773,
    "longitude": -80.4827,
    "source": "appraisal_dataset",
    "close_date": "2024-12-18"
  },
  {
    "id": 133985,
    "address": "17 Stratus Street ",
    "appraisal_id": "unknown",
    "sale_price": 700000.0,
    "gla": 1274.0,
    "lot_size": 0.0,
    "bedrooms": 3.0,
    "bathrooms": 1.0,
    "year_built": 2016.0,
    "garage_spaces": 0.0,
    "structure_type": "Row/Townhouse, Two Story ",
    "latitude": 43.3819,
    "longitude": -80.4959,
    "source": "appraisal_dataset",
    "close_date": "2024-12-19"
  },
  {
    "id": 111894,
    "address": "Unit E - 236 Rachel Crescent ",
    "appraisal_id": "unknown",
    "sale_price": 470000.0,
    "gla": 925.0,
    "lot_size": 0.0,
    "bedrooms": 2.0,
    "bathrooms": 1.0,
    "year_built": 2013.0,
    "garage_spaces": 0.0,
    "structure_type": "Row/Townhouse, Two Story ",
    "latitude": 43.3838,
    "longitude": -80.4879,
    "source": "appraisal_dataset",
    "close_date": "2024-12-20"
  },
  {
    "id": 126641,
    "address": "Unit 41 - 111 South Creek Drive ",
    "appraisal_id": "unknown",
    "sale_price": 600000.0,
    "gla": 1355.0,
    "lot_size": 0.0,
    "bedrooms": 2.0,
    "bathrooms": 1.0,
    "year_built": 1990.0,
    "garage_spaces": 0.0,
    "structure_type": "Row/Townhouse, 3 Storey ",
    "latitude": 43.3746,
    "longitude": -80.441,
    "source": "appraisal_dataset",
    "close_date": "2024-12-20"
  },
  {
    "id": 133926,
    "address": "169 South Creek Drive ",
    "appraisal_id": "unknown",
    "sale_price": 670500.0,
    "gla": 1278.0,
    "lot_size": 0.0,
    "bedrooms": 3.0,
    "bathrooms": 1.0,
    "year_built": 2018.0,
    "garage_spaces": 0.0,
    "structure_type": "Row/Townhouse, Two Story ",
    "latitude": 43.373,
    "longitude": -80.4405,
    "source": "appraisal_dataset",
    "close_date": "2024-12-20"
  },
  {
    "id": 133947,
    "address": "Unit 42 - 169 South Creek Drive ",
    "appraisal_id": "unknown",
    "sale_price": 670500.0,
    "gla": 1300.0,
    "lot_size": 0.0,
    "bedrooms": 3.0,
    "bathrooms": 1.0,
    "year_built": 1990.0,
    "garage_spaces": 0.0,
    "structure_type": "Condo Townhouse, 2-Storey ",
    "latitude": 43.373,
    "longitude": -80.4405,
    "source": "appraisal_dataset",
    "close_date": "2024-12-20"
  },
  {
    "id": 188931,
    "address": "905 Woodbine Court ",
    "appraisal_id": "unknown",
    "sale_price": 1085000.0,
    "gla": 2450.0,
    "lot_size": 0.0,
    "bedrooms": 5.0,
    "bathrooms": 1.0,
    "year_built": 2006.0,
    "garage_spaces": 0.0,
    "structure_type": "Single Family Residence, Two Story ",
    "latitude": 43.3867,
    "longitude": -80.4841,
    "source": "appraisal_dataset",
    "close_date": "2024-12-20"
  },
  {
    "id": 211641,
    "address": "182 Doon Mills Drive ",
    "appraisal_id": "unknown",
    "sale_price": 1180000.0,
    "gla": 3247.0,
    "lot_size": 0.0,
    "bedrooms": 6.0,
    "bathrooms": 1.0,
    "year_built": 2003.0,
    "garage_spaces": 0.0,
    "structure_type": "Single Family Residence, Two Story ",
    "latitude": 43.387,
    "longitude": -80.4325,
    "source": "appraisal_dataset",
    "close_date": "2024-12-20"
  },
  {
    "id": 106315,
    "address": "140 Ian Ormston Drive ",
    "appraisal_id": "unknown",
    "sale_price": 800000.0,
    "gla": 1840.0,
    "lot_size": 0.0,
    "bedrooms": 3.0,
    "bathrooms": 1.0,
    "year_built": 2021.0,
    "garage_spaces": 0.0,
    "structure_type": "Row/Townhouse, 3 Storey ",
    "latitude": 43.3774,
    "longitude": -80.4197,
    "source": "appraisal_dataset",
    "close_date": "2024-12-22"
  },
  {
    "id": 143284,
    "address": "37 Sportsman Hill Street ",
    "appraisal_id": "unknown",
    "sale_price": 750000.0,
    "gla": 1684.0,
    "lot_size": 0.0,
    "bedrooms": 4.0,
    "bathrooms": 1.0,
    "year_built": 1990.0,
    "garage_spaces": 0.0,
    "structure_type": "Row/Townhouse, 3 Storey ",
    "latitude": 43.3767,
    "longitude": -80.4186,
    "source": "appraisal_dataset",
    "close_date": "2024-12-22"
  },
  {
    "id": 192725,
    "address": "3219 Roseville Road ",
    "appraisal_id": "unknown",
    "sale_price": 1130000.0,
    "gla": 2750.0,
    "lot_size": 0.0,
    "bedrooms": 4.0,
    "bathrooms": 1.0,
    "year_built": 1990.0,
    "garage_spaces": 0.0,
    "structure_type": "Detached, 2-Storey ",
    "latitude": 43.3411,
    "longitude": -80.4768,
    "source": "appraisal_dataset",
    "close_date": "2024-12-24"
  },
  {
    "id": 145869,
    "address": "13 Shedrow Place ",
    "appraisal_id": "unknown",
    "sale_price": 740000.0,
    "gla": 1750.0,
    "lot_size": 0.0,
    "bedrooms": 3.0,
    "bathrooms": 1.0,
    "year_built": 1990.0,
    "garage_spaces": 0.0,
    "structure_type": "Freehold Townhouse, 2-Storey ",
    "latitude": 43.3847,
    "longitude": -80.4752,
    "source": "appraisal_dataset",
    "close_date": "2024-12-26"
  },
  {
    "id": 167096,
    "address": "217 Sedgewood Street ",
    "appraisal_id": "unknown",
    "sale_price": 935000.0,
    "gla": 2000.0,
    "lot_size": 0.0,
    "bedrooms": 3.0,
    "bathrooms": 1.0,
    "year_built": 2020.0,
    "garage_spaces": 0.0,
    "structure_type": "Single Family Residence, Two Story ",
    "latitude": 43.3719,
    "longitude": -80.4421,
    "source": "appraisal_dataset",
    "close_date": "2024-12-29"
  },
  {
    "id": 177260,
    "address": "65 Banffshire Street ",
    "appraisal_id": "unknown",
    "sale_price": 860000.0,
    "gla": 1491.0,
    "lot_size": 0.0,
    "bedrooms": 5.0,
    "bathrooms": 1.0,
    "year_built": 1990.0,
    "garage_spaces": 0.0,
    "structure_type": "Single Family Residence, Two Story ",
    "latitude": 43.3867,
    "longitude": -80.4719,
    "source": "appraisal_dataset",
    "close_date": "2024-12-29"
  },
  {
    "id": 195799,
    "address": "2 Stonehill Avenue E ",
    "appraisal_id": "unknown",
    "sale_price": 895000.0,
    "gla": 2225.0,
    "lot_size": 0.0,
    "bedrooms": 3.0,
    "bathrooms": 1.0,
    "year_built": 1990.0,
    "garage_spaces": 0.0,
    "structure_type": "Row/Townhouse, Two Story ",
    "latitude": 43.3818,
    "longitude": -80.483,
    "source": "appraisal_dataset",
    "close_date": "2024-12-31"
  },
  {
    "id": 139798,
    "address": "152 Wheat Lane ",
    "appraisal_id": "unknown",
    "sale_price": 535000.0,
    "gla": 1225.0,
    "lot_size": 0.0,
    "bedrooms": 2.0,
    "bathrooms": 1.0,
    "year_built": 2022.0,
    "garage_spaces": 0.0,
    "structure_type": "Row/Townhouse, Stacked Townhouse ",
    "latitude": 43.38,
    "longitude": -80.4812,
    "source": "appraisal_dataset",
    "close_date": "2025-01-03"
  },
  {
    "id": 177574,
    "address": "956 Bianca Court ",
    "appraisal_id": "unknown",
    "sale_price": 900000.0,
    "gla": 2188.0,
    "lot_size": 0.0,
    "bedrooms": 4.0,
    "bathrooms": 1.0,
    "year_built": 1990.0,
    "garage_spaces": 0.0,
    "structure_type": "Single Family Residence, Two Story ",
    "latitude": 43.3911,
    "longitude": -80.4804,
    "source": "appraisal_dataset",
    "close_date": "2025-01-03"
  },
  {
    "id": 178477,
    "address": "258 Sedgewood Street ",
    "appraisal_id": "unknown",
    "sale_price": 975000.0,
    "gla": 2122.0,
    "lot_size": 0.0,
    "bedrooms": 3.0,
    "bathrooms": 1.0,
    "year_built": 1990.0,
    "garage_spaces": 0.0,
    "structure_type": "Single Family Residence, Two Story ",
    "latitude": 43.3721,
    "longitude": -80.4435,
    "source": "appraisal_dataset",
    "close_date": "2025-01-03"
  },
  {
    "id": 196563,
    "address": "82 Cedar Crescent ",
    "appraisal_id": "unknown",
    "sale_price": 910000.0,
    "gla": 1570.0,
    "lot_size": 0.0,
    "bedrooms": 4.0,
    "bathrooms": 1.0,
    "year_built": 1990.0,
    "garage_spaces": 0.0,
    "structure_type": "Single Family Residence, Two Story ",
    "latitude": 43.3487,
    "longitude": -80.5324,
    "source": "appraisal_dataset",
    "close_date": "2025-01-03"
  },
  {
    "id": 192195,
    "address": "11 Netherwood Road ",
    "appraisal_id": "unknown",
    "sale_price": 1150000.0,
    "gla": 2575.0,
    "lot_size": 0.0,
    "bedrooms": 6.0,
    "bathrooms": 1.0,
    "year_built": 2016.0,
    "garage_spaces": 0.0,
    "structure_type": "Single Family Residence, Two Story ",
    "latitude": 43.3742,
    "longitude": -80.4364,
    "source": "appraisal_dataset",
    "close_date": "2025-01-06"
  },
  {
    "id": 195980,
    "address": "85 Grassbourne Avenue ",
    "appraisal_id": "unknown",
    "sale_price": 860000.0,
    "gla": 2095.0,
    "lot_size": 0.0,
    "bedrooms": 4.0,
    "bathrooms": 1.0,
    "year_built": 2023.0,
    "garage_spaces": 0.0,
    "structure_type": "Row/Townhouse, Two Story ",
    "latitude": 43.3774,
    "longitude": -80.4832,
    "source": "appraisal_dataset",
    "close_date": "2025-01-08"
  },
  {
    "id": 152671,
    "address": "8 Pony Way ",
    "appraisal_id": "unknown",
    "sale_price": 790000.0,
    "gla": 1709.0,
    "lot_size": 0.0,
    "bedrooms": 3.0,
    "bathrooms": 1.0,
    "year_built": 2021.0,
    "garage_spaces": 0.0,
    "structure_type": "Row/Townhouse, Two Story ",
    "latitude": 43.3853,
    "longitude": -80.4755,
    "source": "appraisal_dataset",
    "close_date": "2025-01-14"
  },
  {
    "id": 129974,
    "address": "Unit 81 - 219 West Oak Trail ",
    "appraisal_id": "unknown",
    "sale_price": 550000.0,
    "gla": 1452.0,
    "lot_size": 0.0,
    "bedrooms": 2.0,
    "bathrooms": 1.0,
    "year_built": 1990.0,
    "garage_spaces": 0.0,
    "structure_type": "Row/Townhouse, Stacked Townhouse ",
    "latitude": 43.3836,
    "longitude": -80.492,
    "source": "appraisal_dataset",
    "close_date": "2025-01-15"
  },
  {
    "id": 143468,
    "address": "80 Pony Way ",
    "appraisal_id": "unknown",
    "sale_price": 780000.0,
    "gla": 1727.0,
    "lot_size": 0.0,
    "bedrooms": 3.0,
    "bathrooms": 1.0,
    "year_built": 1990.0,
    "garage_spaces": 0.0,
    "structure_type": "Row/Townhouse, Two Story ",
    "latitude": 43.3837,
    "longitude": -80.4758,
    "source": "appraisal_dataset",
    "close_date": "2025-01-15"
  },
  {
    "id": 139667,
    "address": "Unit 71 - 261 Woodbine Avenue ",
    "appraisal_id": "unknown",
    "sale_price": 515000.0,
    "gla": 977.0,
    "lot_size": 0.0,
    "bedrooms": 3.0,
    "bathrooms": 1.0,
    "year_built": 1990.0,
    "garage_spaces": 0.0,
    "structure_type": "Row/Townhouse, Stacked Townhouse ",
    "latitude": 43.3921,
    "longitude": -80.4858,
    "source": "appraisal_dataset",
    "close_date": "2025-01-16"
  },
  {
    "id": 146611,
    "address": "60 Cedar Crescent ",
    "appraisal_id": "unknown",
    "sale_price": 580000.0,
    "gla": 895.0,
    "lot_size": 0.0,
    "bedrooms": 2.0,
    "bathrooms": 1.0,
    "year_built": 1934.0,
    "garage_spaces": 0.0,
    "structure_type": "Detached, Single Family Residence, Bungalow ",
    "latitude": 43.3486,
    "longitude": -80.5328,
    "source": "appraisal_dataset",
    "close_date": "2025-01-16"
  },
  {
    "id": 192602,
    "address": "842 Robert Ferrie Drive ",
    "appraisal_id": "unknown",
    "sale_price": 1175000.0,
    "gla": 2509.0,
    "lot_size": 0.0,
    "bedrooms": 4.0,
    "bathrooms": 1.0,
    "year_built": 2021.0,
    "garage_spaces": 0.0,
    "structure_type": "Single Family Residence, Two Story ",
    "latitude": 43.3785,
    "longitude": -80.4469,
    "source": "appraisal_dataset",
    "close_date": "2025-01-16"
  },
  {
    "id": 106080,
    "address": "29 Blue Oak Street ",
    "appraisal_id": "unknown",
    "sale_price": 838000.0,
    "gla": 1600.0,
    "lot_size": 0.0,
    "bedrooms": 3.0,
    "bathrooms": 1.0,
    "year_built": 2016.0,
    "garage_spaces": 0.0,
    "structure_type": "Single Family Residence, Two Story ",
    "latitude": 43.383,
    "longitude": -80.4971,
    "source": "appraisal_dataset",
    "close_date": "2025-01-17"
  },
  {
    "id": 159587,
    "address": "Unit F022 - 15 Stauffer Woods Trail ",
    "appraisal_id": "unknown",
    "sale_price": 455900.0,
    "gla": 782.0,
    "lot_size": 0.0,
    "bedrooms": 1.0,
    "bathrooms": 1.0,
    "year_built": 1990.0,
    "garage_spaces": 0.0,
    "structure_type": "Row/Townhouse, Bungalow ",
    "latitude": 43.3671,
    "longitude": -80.443,
    "source": "appraisal_dataset",
    "close_date": "2025-01-17"
  },
  {
    "id": 159616,
    "address": "Unit C - 25 Sienna Street ",
    "appraisal_id": "unknown",
    "sale_price": 499900.0,
    "gla": 1121.0,
    "lot_size": 0.0,
    "bedrooms": 2.0,
    "bathrooms": 1.0,
    "year_built": 2015.0,
    "garage_spaces": 0.0,
    "structure_type": "Row/Townhouse, Stacked Townhouse ",
    "latitude": 43.3844,
    "longitude": -80.4883,
    "source": "appraisal_dataset",
    "close_date": "2025-01-17"
  },
  {
    "id": 195698,
    "address": "59 Nith River Way ",
    "appraisal_id": "unknown",
    "sale_price": 865000.0,
    "gla": 1715.0,
    "lot_size": 0.0,
    "bedrooms": 3.0,
    "bathrooms": 1.0,
    "year_built": 1992.0,
    "garage_spaces": 0.0,
    "structure_type": "Single Family Residence, Bungalow ",
    "latitude": 43.2919,
    "longitude": -80.4659,
    "source": "appraisal_dataset",
    "close_date": "2025-01-17"
  },
  {
    "id": 213855,
    "address": "967 Doon Village Road ",
    "appraisal_id": "unknown",
    "sale_price": 1300000.0,
    "gla": 2496.0,
    "lot_size": 0.0,
    "bedrooms": 5.0,
    "bathrooms": 1.0,
    "year_built": 2009.0,
    "garage_spaces": 0.0,
    "structure_type": "Single Family Residence, Two Story ",
    "latitude": 43.3895,
    "longitude": -80.4369,
    "source": "appraisal_dataset",
    "close_date": "2025-01-17"
  },
  {
    "id": 188690,
    "address": "425 Woodbine Avenue ",
    "appraisal_id": "unknown",
    "sale_price": 1080000.0,
    "gla": 2164.0,
    "lot_size": 0.0,
    "bedrooms": 4.0,
    "bathrooms": 1.0,
    "year_built": 2015.0,
    "garage_spaces": 0.0,
    "structure_type": "Single Family Residence, Two Story ",
    "latitude": 43.3922,
    "longitude": -80.4806,
    "source": "appraisal_dataset",
    "close_date": "2025-01-19"
  },
  {
    "id": 106552,
    "address": "27 Verona Street ",
    "appraisal_id": "unknown",
    "sale_price": 850000.0,
    "gla": 1621.0,
    "lot_size": 0.0,
    "bedrooms": 3.0,
    "bathrooms": 1.0,
    "year_built": 2006.0,
    "garage_spaces": 0.0,
    "structure_type": "Single Family Residence, Two Story ",
    "latitude": 43.3842,
    "longitude": -80.4849,
    "source": "appraisal_dataset",
    "close_date": "2025-01-20"
  },
  {
    "id": 152857,
    "address": "102 Watermill Street ",
    "appraisal_id": "unknown",
    "sale_price": 790000.0,
    "gla": 1750.0,
    "lot_size": 0.0,
    "bedrooms": 4.0,
    "bathrooms": 1.0,
    "year_built": 1990.0,
    "garage_spaces": 0.0,
    "structure_type": "Freehold Townhouse, 2-Storey ",
    "latitude": 43.3735,
    "longitude": -80.4308,
    "source": "appraisal_dataset",
    "close_date": "2025-01-21"
  },
  {
    "id": 134149,
    "address": "94 Rochefort Street ",
    "appraisal_id": "unknown",
    "sale_price": 696000.0,
    "gla": 1300.0,
    "lot_size": 0.0,
    "bedrooms": 3.0,
    "bathrooms": 1.0,
    "year_built": 1990.0,
    "garage_spaces": 0.0,
    "structure_type": "Freehold Townhouse, 3-Storey ",
    "latitude": 43.3841,
    "longitude": -80.4798,
    "source": "appraisal_dataset",
    "close_date": "2025-01-22"
  },
  {
    "id": 98960,
    "address": "37 Harvest Court ",
    "appraisal_id": "unknown",
    "sale_price": 642000.0,
    "gla": 1067.0,
    "lot_size": 0.0,
    "bedrooms": 5.0,
    "bathrooms": 1.0,
    "year_built": 1983.0,
    "garage_spaces": 0.0,
    "structure_type": "Semi Detached, Single Family Residence, Bungalow ",
    "latitude": 43.3919,
    "longitude": -80.4422,
    "source": "appraisal_dataset",
    "close_date": "2025-01-24"
  },
  {
    "id": 152682,
    "address": "Unit LOT 0028 - 34 Pine Warbler Street ",
    "appraisal_id": "unknown",
    "sale_price": 797400.0,
    "gla": 1483.0,
    "lot_size": 0.0,
    "bedrooms": 3.0,
    "bathrooms": 1.0,
    "year_built": 1990.0,
    "garage_spaces": 0.0,
    "structure_type": "Single Family Residence, Two Story ",
    "latitude": 43.3668,
    "longitude": -80.4445,
    "source": "appraisal_dataset",
    "close_date": "2025-01-25"
  },
  {
    "id": 133997,
    "address": "216 Sophia Crescent ",
    "appraisal_id": "unknown",
    "sale_price": 670000.0,
    "gla": 1418.0,
    "lot_size": 0.0,
    "bedrooms": 3.0,
    "bathrooms": 1.0,
    "year_built": 1990.0,
    "garage_spaces": 0.0,
    "structure_type": "Row/Townhouse, 3 Storey ",
    "latitude": 43.3863,
    "longitude": -80.4883,
    "source": "appraisal_dataset",
    "close_date": "2025-01-27"
  },
  {
    "id": 145615,
    "address": "12 Roper Place ",
    "appraisal_id": "unknown",
    "sale_price": 730000.0,
    "gla": 1518.0,
    "lot_size": 0.0,
    "bedrooms": 3.0,
    "bathrooms": 1.0,
    "year_built": 2023.0,
    "garage_spaces": 0.0,
    "structure_type": "Row/Townhouse, Two Story ",
    "latitude": 43.3854,
    "longitude": -80.4759,
    "source": "appraisal_dataset",
    "close_date": "2025-01-27"
  },
  {
    "id": 177320,
    "address": "208 Woodbine Avenue ",
    "appraisal_id": "unknown",
    "sale_price": 875000.0,
    "gla": 1685.0,
    "lot_size": 0.0,
    "bedrooms": 3.0,
    "bathrooms": 1.0,
    "year_built": 2021.0,
    "garage_spaces": 0.0,
    "structure_type": "Single Family Residence, Two Story ",
    "latitude": 43.3894,
    "longitude": -80.4857,
    "source": "appraisal_dataset",
    "close_date": "2025-01-28"
  },
  {
    "id": 145862,
    "address": "16 Roper Pl ",
    "appraisal_id": "unknown",
    "sale_price": 725000.0,
    "gla": 1621.0,
    "lot_size": 0.0,
    "bedrooms": 3.0,
    "bathrooms": 1.0,
    "year_built": 1990.0,
    "garage_spaces": 0.0,
    "structure_type": "Freehold Townhouse, 2-Storey ",
    "latitude": 43.3854,
    "longitude": -80.476,
    "source": "appraisal_dataset",
    "close_date": "2025-01-29"
  },
  {
    "id": 134258,
    "address": "30 Tudor Street ",
    "appraisal_id": "unknown",
    "sale_price": 690000.0,
    "gla": 1543.0,
    "lot_size": 0.0,
    "bedrooms": 3.0,
    "bathrooms": 1.0,
    "year_built": 1990.0,
    "garage_spaces": 0.0,
    "structure_type": "Row/Townhouse, Two Story ",
    "latitude": 43.3864,
    "longitude": -80.4708,
    "source": "appraisal_dataset",
    "close_date": "2025-01-30"
  },
  {
    "id": 98956,
    "address": "284 Sophia Crescent ",
    "appraisal_id": "unknown",
    "sale_price": 700000.0,
    "gla": 1405.0,
    "lot_size": 0.0,
    "bedrooms": 3.0,
    "bathrooms": 1.0,
    "year_built": 2007.0,
    "garage_spaces": 0.0,
    "structure_type": "Row/Townhouse, 3 Storey ",
    "latitude": 43.3868,
    "longitude": -80.4858,
    "source": "appraisal_dataset",
    "close_date": "2025-01-31"
  },
  {
    "id": 111769,
    "address": "Unit 25 - 10 South Creek Drive ",
    "appraisal_id": "unknown",
    "sale_price": 499900.0,
    "gla": 998.0,
    "lot_size": 0.0,
    "bedrooms": 2.0,
    "bathrooms": 1.0,
    "year_built": 1990.0,
    "garage_spaces": 0.0,
    "structure_type": "Row/Townhouse, Stacked Townhouse ",
    "latitude": 43.3774,
    "longitude": -80.4438,
    "source": "appraisal_dataset",
    "close_date": "2025-01-31"
  },
  {
    "id": 188728,
    "address": "272 Broadacre Drive ",
    "appraisal_id": "unknown",
    "sale_price": 1077500.0,
    "gla": 2450.0,
    "lot_size": 0.0,
    "bedrooms": 4.0,
    "bathrooms": 1.0,
    "year_built": 1990.0,
    "garage_spaces": 0.0,
    "structure_type": "Single Family Residence, Two Story ",
    "latitude": 43.3775,
    "longitude": -80.4771,
    "source": "appraisal_dataset",
    "close_date": "2025-01-31"
  },
  {
    "id": 188737,
    "address": "63 Netherwood Road ",
    "appraisal_id": "unknown",
    "sale_price": 1065000.0,
    "gla": 2585.0,
    "lot_size": 0.0,
    "bedrooms": 4.0,
    "bathrooms": 1.0,
    "year_built": 1990.0,
    "garage_spaces": 0.0,
    "structure_type": "Single Family Residence, Two Story ",
    "latitude": 43.3735,
    "longitude": -80.4347,
    "source": "appraisal_dataset",
    "close_date": "2025-01-31"
  },
  {
    "id": 152845,
    "address": "57 Woodedge Circle ",
    "appraisal_id": "unknown",
    "sale_price": 755000.0,
    "gla": 1639.0,
    "lot_size": 0.0,
    "bedrooms": 3.0,
    "bathrooms": 1.0,
    "year_built": 1990.0,
    "garage_spaces": 0.0,
    "structure_type": "Freehold Townhouse, 2-Storey ",
    "latitude": 43.3813,
    "longitude": -80.4743,
    "source": "appraisal_dataset",
    "close_date": "2025-02-03"
  },
  {
    "id": 194970,
    "address": "47 Watermill Street ",
    "appraisal_id": "unknown",
    "sale_price": 940000.0,
    "gla": 1750.0,
    "lot_size": 0.0,
    "bedrooms": 5.0,
    "bathrooms": 1.0,
    "year_built": 1990.0,
    "garage_spaces": 0.0,
    "structure_type": "Detached, 2-Storey ",
    "latitude": 43.3744,
    "longitude": -80.4325,
    "source": "appraisal_dataset",
    "close_date": "2025-02-03"
  },
  {
    "id": 201087,
    "address": "31 Rockcliffe Drive ",
    "appraisal_id": "unknown",
    "sale_price": 1150000.0,
    "gla": 2750.0,
    "lot_size": 0.0,
    "bedrooms": 4.0,
    "bathrooms": 1.0,
    "year_built": 1990.0,
    "garage_spaces": 0.0,
    "structure_type": "Detached, 2-Storey ",
    "latitude": 43.3847,
    "longitude": -80.4699,
    "source": "appraisal_dataset",
    "close_date": "2025-02-05"
  },
  {
    "id": 194828,
    "address": "179 Doon Mills Dr ",
    "appraisal_id": "unknown",
    "sale_price": 925000.0,
    "gla": 1750.0,
    "lot_size": 0.0,
    "bedrooms": 3.0,
    "bathrooms": 1.0,
    "year_built": 1990.0,
    "garage_spaces": 0.0,
    "structure_type": "Freehold Townhouse, Bungalow ",
    "latitude": 43.3865,
    "longitude": -80.4328,
    "source": "appraisal_dataset",
    "close_date": "2025-02-06"
  },
  {
    "id": 200893,
    "address": "Unit Lot 0032 - 162 Shaded Creek Drive ",
    "appraisal_id": "unknown",
    "sale_price": 1195000.0,
    "gla": 2786.0,
    "lot_size": 0.0,
    "bedrooms": 4.0,
    "bathrooms": 1.0,
    "year_built": 1990.0,
    "garage_spaces": 0.0,
    "structure_type": "Single Family Residence, Two Story ",
    "latitude": 43.3655,
    "longitude": -80.4414,
    "source": "appraisal_dataset",
    "close_date": "2025-02-07"
  },
  {
    "id": 201057,
    "address": "900 Steepleridge Court ",
    "appraisal_id": "unknown",
    "sale_price": 1135000.0,
    "gla": 2578.0,
    "lot_size": 0.0,
    "bedrooms": 4.0,
    "bathrooms": 1.0,
    "year_built": 2012.0,
    "garage_spaces": 0.0,
    "structure_type": "Single Family Residence, Two Story ",
    "latitude": 43.3758,
    "longitude": -80.4365,
    "source": "appraisal_dataset",
    "close_date": "2025-02-07"
  },
  {
    "id": 171029,
    "address": "2259 Cedar Creek Road ",
    "appraisal_id": "unknown",
    "sale_price": 1225000.0,
    "gla": 2783.0,
    "lot_size": 0.0,
    "bedrooms": 3.0,
    "bathrooms": 1.0,
    "year_built": 1870.0,
    "garage_spaces": 0.0,
    "structure_type": "Single Family Residence, 1.5 Storey ",
    "latitude": 43.3362,
    "longitude": -80.4174,
    "source": "appraisal_dataset",
    "close_date": "2025-02-08"
  },
  {
    "id": 177174,
    "address": "149 Maitland Street ",
    "appraisal_id": "unknown",
    "sale_price": 890000.0,
    "gla": 1525.0,
    "lot_size": 0.0,
    "bedrooms": 3.0,
    "bathrooms": 1.0,
    "year_built": 2015.0,
    "garage_spaces": 0.0,
    "structure_type": "Single Family Residence, Two Story ",
    "latitude": 43.3868,
    "longitude": -80.4792,
    "source": "appraisal_dataset",
    "close_date": "2025-02-14"
  },
  {
    "id": 188706,
    "address": "760 ROBERT FERRIE Drive ",
    "appraisal_id": "unknown",
    "sale_price": 1030000.0,
    "gla": 2166.0,
    "lot_size": 0.0,
    "bedrooms": 3.0,
    "bathrooms": 1.0,
    "year_built": 1990.0,
    "garage_spaces": 0.0,
    "structure_type": "Detached, Bungaloft ",
    "latitude": 43.3779,
    "longitude": -80.4427,
    "source": "appraisal_dataset",
    "close_date": "2025-02-14"
  },
  {
    "id": 162251,
    "address": "Unit 41 - 15 Stauffer Woods Trail ",
    "appraisal_id": "unknown",
    "sale_price": 2600.0,
    "gla": 1729.0,
    "lot_size": 0.0,
    "bedrooms": 4.0,
    "bathrooms": 1.0,
    "year_built": 1990.0,
    "garage_spaces": 0.0,
    "structure_type": "Condo/Apt Unit, Two Story ",
    "latitude": 43.3671,
    "longitude": -80.443,
    "source": "appraisal_dataset",
    "close_date": "2025-02-19"
  },
  {
    "id": 195945,
    "address": "85 Broadacre Drive ",
    "appraisal_id": "unknown",
    "sale_price": 870000.0,
    "gla": 2000.0,
    "lot_size": 0.0,
    "bedrooms": 4.0,
    "bathrooms": 1.0,
    "year_built": 2023.0,
    "garage_spaces": 0.0,
    "structure_type": "Single Family Residence, Two Story ",
    "latitude": 43.3767,
    "longitude": -80.4839,
    "source": "appraisal_dataset",
    "close_date": "2025-02-19"
  },
  {
    "id": 201088,
    "address": "443 Hearthwood Drive ",
    "appraisal_id": "unknown",
    "sale_price": 1185000.0,
    "gla": 2717.0,
    "lot_size": 0.0,
    "bedrooms": 6.0,
    "bathrooms": 1.0,
    "year_built": 1990.0,
    "garage_spaces": 0.0,
    "structure_type": "Single Family Residence, Two Story ",
    "latitude": 43.383,
    "longitude": -80.4552,
    "source": "appraisal_dataset",
    "close_date": "2025-02-19"
  },